{
 "source": "/Users/stephenc/src/github.com/www.klymot.com/docs/data/index.json",
 "stations": [
  {
   "id": "ACW00011604",
   "name": "SAVE",
   "lat": 57.7667,
   "lon": 11.8667
  },
  {
   "id": "AE000041196",
   "name": "SHARJAH INTER AIRP",
   "lat": 25.333,
   "lon": 55.517
  },
  {
   "id": "AEM00041184",
   "name": "RAS AL KHAIMAH INTE",
   "lat": 25.617,
   "lon": 55.933
  },
  {
   "id": "AEM00041194",
   "name": "DUBAI INTL",
   "lat": 25.255,
   "lon": 55.364
  },
  {
   "id": "AEM00041216",
   "name": "ABU DHABI BATEEN AIR",
   "lat": 24.43,
   "lon": 54.47
  },
  {
   "id": "AEM00041217",
   "name": "ABU DHABI INTL",
   "lat": 24.433,
   "lon": 54.651
  },
  {
   "id": "AEM00041218",
   "name": "AL AIN INTL",
   "lat": 24.262,
   "lon": 55.609
  },
  {
   "id": "AF000040930",
   "name": "NORTH SALANG",
   "lat": 35.317,
   "lon": 69.017
  },
  {
   "id": "AFM00040911",
   "name": "MAZAR I SHARIF",
   "lat": 36.7,
   "lon": 67.2
  },
  {
   "id": "AFM00040938",
   "name": "HERAT",
   "lat": 34.21,
   "lon": 62.228
  },
  {
   "id": "AFM00040948",
   "name": "KABUL INTL",
   "lat": 34.566,
   "lon": 69.212
  },
  {
   "id": "AFM00040990",
   "name": "KANDAHAR AIRPORT",
   "lat": 31.5,
   "lon": 65.85
  },
  {
   "id": "AFXLT299877",
   "name": "CHAKHCHARAN",
   "lat": 34.5,
   "lon": 65.3
  },
  {
   "id": "AG000060390",
   "name": "ALGER DAR EL BEIDA",
   "lat": 36.7167,
   "lon": 3.25
  },
  {
   "id": "AG000060590",
   "name": "EL GOLEA",
   "lat": 30.5667,
   "lon": 2.8667
  },
  {
   "id": "AG000060611",
   "name": "IN AMENAS",
   "lat": 28.05,
   "lon": 9.6331
  },
  {
   "id": "AG000060680",
   "name": "TAMANRASSET",
   "lat": 22.8,
   "lon": 5.4331
  },
  {
   "id": "AGE00135039",
   "name": "ORAN HOPITAL MILITAIRE",
   "lat": 35.7297,
   "lon": -0.65
  },
  {
   "id": "AGE00147704",
   "name": "ANNABA CAP DE GARDE",
   "lat": 36.97,
   "lon": 7.79
  },
  {
   "id": "AGE00147705",
   "name": "ALGIERS VILLE UNIVERSITE",
   "lat": 36.78,
   "lon": 3.07
  },
  {
   "id": "AGE00147706",
   "name": "ALGIERS BOUZAREAH",
   "lat": 36.8,
   "lon": 3.03
  },
  {
   "id": "AGE00147707",
   "name": "ALGIERS CAP CAXINE",
   "lat": 36.8,
   "lon": 3.04
  },
  {
   "id": "AGE00147708",
   "name": "TIZI OUZOU",
   "lat": 36.72,
   "lon": 4.05
  },
  {
   "id": "AGE00147709",
   "name": "FORT NATIONAL",
   "lat": 36.63,
   "lon": 4.2
  },
  {
   "id": "AGE00147710",
   "name": "BEJAIA BOUGIE PORT",
   "lat": 36.75,
   "lon": 5.1
  },
  {
   "id": "AGE00147711",
   "name": "CONSTANTINE",
   "lat": 36.3697,
   "lon": 6.62
  },
  {
   "id": "AGE00147712",
   "name": "ORLEANSVILLE CHLEF",
   "lat": 36.17,
   "lon": 1.34
  },
  {
   "id": "AGE00147713",
   "name": "SETIF",
   "lat": 36.18,
   "lon": 5.4
  },
  {
   "id": "AGE00147714",
   "name": "ORAN CAP FALCON",
   "lat": 35.77,
   "lon": 0.8
  },
  {
   "id": "AGE00147715",
   "name": "TEBESSA",
   "lat": 35.42,
   "lon": 8.1197
  },
  {
   "id": "AGE00147716",
   "name": "NEMOURS GHAZAOUET",
   "lat": 35.1,
   "lon": -1.85
  },
  {
   "id": "AGE00147718",
   "name": "BISKRA",
   "lat": 34.85,
   "lon": 5.72
  },
  {
   "id": "AGE00147719",
   "name": "LAGHOUAT",
   "lat": 33.7997,
   "lon": 2.89
  },
  {
   "id": "AGE00147720",
   "name": "GERYVILLE EL BAYADH",
   "lat": 33.68,
   "lon": 1.0
  },
  {
   "id": "AGM00060351",
   "name": "JIJEL",
   "lat": 36.795,
   "lon": 5.874
  },
  {
   "id": "AGM00060353",
   "name": "JIJEL PORT",
   "lat": 36.817,
   "lon": 5.883
  },
  {
   "id": "AGM00060355",
   "name": "SKIKDA",
   "lat": 36.933,
   "lon": 6.95
  },
  {
   "id": "AGM00060360",
   "name": "ANNABA",
   "lat": 36.822,
   "lon": 7.809
  },
  {
   "id": "AGM00060367",
   "name": "EL KALA",
   "lat": 36.9,
   "lon": 8.45
  },
  {
   "id": "AGM00060369",
   "name": "ALGER PORT",
   "lat": 36.767,
   "lon": 3.1
  },
  {
   "id": "AGM00060387",
   "name": "DELLYS",
   "lat": 36.917,
   "lon": 3.95
  },
  {
   "id": "AGM00060402",
   "name": "SOUMMAM",
   "lat": 36.712,
   "lon": 5.07
  },
  {
   "id": "AGM00060403",
   "name": "GUELMA",
   "lat": 36.467,
   "lon": 7.467
  },
  {
   "id": "AGM00060405",
   "name": "BOUCHEGOUF",
   "lat": 36.5,
   "lon": 7.717
  },
  {
   "id": "AGM00060410",
   "name": "TENES",
   "lat": 36.5,
   "lon": 1.333
  },
  {
   "id": "AGM00060415",
   "name": "AIN BESSAM",
   "lat": 36.317,
   "lon": 3.533
  },
  {
   "id": "AGM00060417",
   "name": "BOUIRA",
   "lat": 36.383,
   "lon": 3.883
  },
  {
   "id": "AGM00060419",
   "name": "MOHAMED BOUDIAF INTL",
   "lat": 36.276,
   "lon": 6.62
  },
  {
   "id": "AGM00060421",
   "name": "OUM EL BOUAGHI",
   "lat": 35.867,
   "lon": 7.117
  },
  {
   "id": "AGM00060423",
   "name": "SOUK AHRAS",
   "lat": 36.283,
   "lon": 7.967
  },
  {
   "id": "AGM00060425",
   "name": "ECH CHELIFF",
   "lat": 36.213,
   "lon": 1.332
  },
  {
   "id": "AGM00060430",
   "name": "MILIANA",
   "lat": 36.3,
   "lon": 2.233
  },
  {
   "id": "AGM00060437",
   "name": "MEDEA",
   "lat": 36.283,
   "lon": 2.733
  },
  {
   "id": "AGM00060444",
   "name": "BORDJ BOU ARRERIDJ",
   "lat": 36.067,
   "lon": 4.767
  },
  {
   "id": "AGM00060445",
   "name": "SETIF AIN ARNAT",
   "lat": 36.178,
   "lon": 5.324
  },
  {
   "id": "AGM00060452",
   "name": "ARZEW",
   "lat": 35.817,
   "lon": -0.267
  },
  {
   "id": "AGM00060457",
   "name": "MOSTAGANEM",
   "lat": 35.883,
   "lon": 0.117
  },
  {
   "id": "AGM00060461",
   "name": "ORAN PORT",
   "lat": 35.7,
   "lon": -0.65
  },
  {
   "id": "AGM00060467",
   "name": "M'SILA",
   "lat": 35.667,
   "lon": 4.5
  },
  {
   "id": "AGM00060468",
   "name": "BATNA",
   "lat": 35.55,
   "lon": 6.183
  },
  {
   "id": "AGM00060471",
   "name": "BARIKA",
   "lat": 35.333,
   "lon": 5.333
  },
  {
   "id": "AGM00060475",
   "name": "CHEIKH LARBI TEBESSI",
   "lat": 35.432,
   "lon": 8.121
  },
  {
   "id": "AGM00060476",
   "name": "KHENCHELLA",
   "lat": 35.467,
   "lon": 7.083
  },
  {
   "id": "AGM00060490",
   "name": "ES SENIA",
   "lat": 35.624,
   "lon": -0.621
  },
  {
   "id": "AGM00060506",
   "name": "MASCARA MATEMORE",
   "lat": 35.6,
   "lon": 0.3
  },
  {
   "id": "AGM00060507",
   "name": "GHRISS",
   "lat": 35.208,
   "lon": 0.147
  },
  {
   "id": "AGM00060511",
   "name": "BOU CHEKIF",
   "lat": 35.341,
   "lon": 1.463
  },
  {
   "id": "AGM00060514",
   "name": "KSAR CHELLALA",
   "lat": 35.167,
   "lon": 2.317
  },
  {
   "id": "AGM00060515",
   "name": "BOU SAADA",
   "lat": 35.333,
   "lon": 4.206
  },
  {
   "id": "AGM00060518",
   "name": "BENI SAF",
   "lat": 35.3,
   "lon": -1.35
  },
  {
   "id": "AGM00060520",
   "name": "SIDI BEL ABBES",
   "lat": 35.2,
   "lon": -0.617
  },
  {
   "id": "AGM00060522",
   "name": "MAGHNIA",
   "lat": 34.82,
   "lon": -1.77
  },
  {
   "id": "AGM00060531",
   "name": "ZENATA",
   "lat": 35.017,
   "lon": -1.45
  },
  {
   "id": "AGM00060535",
   "name": "DJELFA TLETSI",
   "lat": 34.683,
   "lon": 3.25
  },
  {
   "id": "AGM00060536",
   "name": "SAIDA",
   "lat": 34.867,
   "lon": 0.15
  },
  {
   "id": "AGM00060540",
   "name": "EL KHEITER",
   "lat": 34.15,
   "lon": 0.067
  },
  {
   "id": "AGM00060549",
   "name": "MECHERIA",
   "lat": 33.536,
   "lon": -0.242
  },
  {
   "id": "AGM00060550",
   "name": "EL BAYADH",
   "lat": 33.667,
   "lon": 1.0
  },
  {
   "id": "AGM00060555",
   "name": "SIDI MAHDI",
   "lat": 33.068,
   "lon": 6.089
  },
  {
   "id": "AGM00060557",
   "name": "NAAMA",
   "lat": 33.267,
   "lon": -0.3
  },
  {
   "id": "AGM00060559",
   "name": "GUEMAR",
   "lat": 33.511,
   "lon": 6.777
  },
  {
   "id": "AGM00060560",
   "name": "AIN SEFRA",
   "lat": 32.767,
   "lon": -0.6
  },
  {
   "id": "AGM00060563",
   "name": "HASSIR'MEL",
   "lat": 32.933,
   "lon": 3.283
  },
  {
   "id": "AGM00060566",
   "name": "NOUMERAT",
   "lat": 32.384,
   "lon": 3.794
  },
  {
   "id": "AGM00060571",
   "name": "BECHAR",
   "lat": 31.646,
   "lon": -2.27
  },
  {
   "id": "AGM00060580",
   "name": "OUARGLA",
   "lat": 31.917,
   "lon": 5.413
  },
  {
   "id": "AGM00060581",
   "name": "OUED IRARA",
   "lat": 31.673,
   "lon": 6.14
  },
  {
   "id": "AGM00060602",
   "name": "BENI ABBES",
   "lat": 30.133,
   "lon": -2.167
  },
  {
   "id": "AGM00060603",
   "name": "RHOURD NOUSS",
   "lat": 29.717,
   "lon": 6.7
  },
  {
   "id": "AGM00060607",
   "name": "TIMIMOUN",
   "lat": 29.237,
   "lon": 0.276
  },
  {
   "id": "AGM00060620",
   "name": "TOUAT CHEIKH SIDI MOHAMED BEL",
   "lat": 27.838,
   "lon": -0.186
  },
  {
   "id": "AGM00060630",
   "name": "IN SALAH",
   "lat": 27.233,
   "lon": 2.5
  },
  {
   "id": "AGM00060640",
   "name": "ILLIZI TAKHAMALT",
   "lat": 26.724,
   "lon": 8.623
  },
  {
   "id": "AGM00060656",
   "name": "TINDOUF",
   "lat": 27.7,
   "lon": -8.167
  },
  {
   "id": "AGM00060670",
   "name": "TISKA",
   "lat": 24.293,
   "lon": 9.452
  },
  {
   "id": "AGM00060686",
   "name": "BORDJ BADJ MOKHTAR",
   "lat": 21.333,
   "lon": 0.95
  },
  {
   "id": "AGM00060690",
   "name": "IN GUEZZAM",
   "lat": 19.567,
   "lon": 5.767
  },
  {
   "id": "AGXLT074658",
   "name": "ADRAR",
   "lat": 27.88,
   "lon": -0.28
  },
  {
   "id": "AGXLT104989",
   "name": "TOUGGOURT",
   "lat": 33.12,
   "lon": 6.13
  },
  {
   "id": "AGXLT146043",
   "name": "HASSI MESSOUD",
   "lat": 31.7,
   "lon": 2.9
  },
  {
   "id": "AGXLT191914",
   "name": "MASCARA GRISS ALGERIA",
   "lat": 35.3,
   "lon": 0.2
  },
  {
   "id": "AGXLT199075",
   "name": "SKIKDA",
   "lat": 36.5,
   "lon": 6.5
  },
  {
   "id": "AGXLT247289",
   "name": "BATNA",
   "lat": 35.75,
   "lon": 6.3167
  },
  {
   "id": "AGXLT305380",
   "name": "EL OUED",
   "lat": 33.5,
   "lon": 6.12
  },
  {
   "id": "AGXLT391176",
   "name": "BENI SAF ALGERIA",
   "lat": 35.3,
   "lon": 1.4
  },
  {
   "id": "AGXLT477883",
   "name": "GHARDAIA",
   "lat": 32.4,
   "lon": 3.8
  },
  {
   "id": "AGXLT544396",
   "name": "AYATA",
   "lat": 33.5,
   "lon": 3.7
  },
  {
   "id": "AGXLT602246",
   "name": "DJANET",
   "lat": 24.55,
   "lon": 9.47
  },
  {
   "id": "AGXLT750989",
   "name": "AOULEF ALGERIA",
   "lat": 27.0,
   "lon": 1.1
  },
  {
   "id": "AGXLT818652",
   "name": "GHAZAOUETAL",
   "lat": 35.1,
   "lon": 1.9
  },
  {
   "id": "AGXLT830065",
   "name": "TLEMCEN",
   "lat": 34.8,
   "lon": -1.3
  },
  {
   "id": "AGXLT898158",
   "name": "ILLIZI",
   "lat": 26.5,
   "lon": 8.42
  },
  {
   "id": "AGXLT952400",
   "name": "TOUGGOURT",
   "lat": 33.4,
   "lon": 3.8
  },
  {
   "id": "AGXLT990706",
   "name": "BEJAIA",
   "lat": 36.8,
   "lon": 5.0
  },
  {
   "id": "AJ000037575",
   "name": "ZAKATALA",
   "lat": 41.55,
   "lon": 46.667
  },
  {
   "id": "AJ000037661",
   "name": "SHAKI",
   "lat": 41.217,
   "lon": 47.167
  },
  {
   "id": "AJ000037675",
   "name": "GUBA",
   "lat": 41.367,
   "lon": 48.517
  },
  {
   "id": "AJ000037735",
   "name": "GANCA",
   "lat": 40.7167,
   "lon": 46.4167
  },
  {
   "id": "AJ000037747",
   "name": "EVLAKH AIRPORT",
   "lat": 40.617,
   "lon": 47.15
  },
  {
   "id": "AJ000037749",
   "name": "GOYCHAY",
   "lat": 40.65,
   "lon": 47.75
  },
  {
   "id": "AJ000037756",
   "name": "MARAZA",
   "lat": 40.533,
   "lon": 48.933
  },
  {
   "id": "AJ000037860",
   "name": "MASHTAGA",
   "lat": 40.533,
   "lon": 50.0
  },
  {
   "id": "AJ000037907",
   "name": "FIZULY",
   "lat": 39.6,
   "lon": 47.15
  },
  {
   "id": "AJ000037936",
   "name": "NAXCIVAN",
   "lat": 39.2,
   "lon": 45.417
  },
  {
   "id": "AJ000037985",
   "name": "LANKARAN",
   "lat": 38.75,
   "lon": 48.817
  },
  {
   "id": "AJ000037989",
   "name": "ASTARA",
   "lat": 38.5,
   "lon": 48.9
  },
  {
   "id": "AJXLT263100",
   "name": "BAKU",
   "lat": 40.4,
   "lon": 49.8
  },
  {
   "id": "ALE00100939",
   "name": "TIRANA",
   "lat": 41.3331,
   "lon": 19.7831
  },
  {
   "id": "ALE00108905",
   "name": "SHKODRA",
   "lat": 42.1,
   "lon": 19.5331
  },
  {
   "id": "ALM00013610",
   "name": "KUKES",
   "lat": 42.0333,
   "lon": 20.4167
  },
  {
   "id": "ALM00013615",
   "name": "TIRANA RINAS",
   "lat": 41.415,
   "lon": 19.721
  },
  {
   "id": "ALM00013622",
   "name": "VLORE",
   "lat": 40.4667,
   "lon": 19.4833
  },
  {
   "id": "ALM00013625",
   "name": "GJIROKASTER",
   "lat": 40.0833,
   "lon": 20.15
  },
  {
   "id": "ALM00013629",
   "name": "KORCA",
   "lat": 40.6,
   "lon": 20.7667
  },
  {
   "id": "AM000037682",
   "name": "AMASIA",
   "lat": 40.783,
   "lon": 43.833
  },
  {
   "id": "AM000037686",
   "name": "GUMRI",
   "lat": 40.78,
   "lon": 43.83
  },
  {
   "id": "AM000037781",
   "name": "ARAGAC VISOKOGORNAYA",
   "lat": 40.5,
   "lon": 44.2
  },
  {
   "id": "AM000037789",
   "name": "YEREVAN",
   "lat": 40.2,
   "lon": 44.5
  },
  {
   "id": "AM000037801",
   "name": "GAVAR",
   "lat": 40.35,
   "lon": 45.1331
  },
  {
   "id": "AMM00037717",
   "name": "SEVAN OZERO",
   "lat": 40.567,
   "lon": 45.0
  },
  {
   "id": "AO000066160",
   "name": "LUANDA",
   "lat": -8.85,
   "lon": 13.233
  },
  {
   "id": "AO000066270",
   "name": "WAKU KUNGU CELA",
   "lat": -11.417,
   "lon": 15.117
  },
  {
   "id": "AO000066390",
   "name": "LUBANGO SA DA BAND",
   "lat": -14.933,
   "lon": 13.567
  },
  {
   "id": "AO000066410",
   "name": "MENONGUE SERPA PIN",
   "lat": -14.65,
   "lon": 17.683
  },
  {
   "id": "AO000066422",
   "name": "MOCAMEDES",
   "lat": -15.2,
   "lon": 12.15
  },
  {
   "id": "AO000066447",
   "name": "MAVINGA",
   "lat": -15.833,
   "lon": 20.35
  },
  {
   "id": "AOM00066140",
   "name": "UIGECARMONA",
   "lat": -7.58,
   "lon": 15.0
  },
  {
   "id": "AOM00066152",
   "name": "DUNDO",
   "lat": -7.4,
   "lon": 20.82
  },
  {
   "id": "AOM00066215",
   "name": "MALANJE",
   "lat": -9.55,
   "lon": 16.37
  },
  {
   "id": "AOM00066226",
   "name": "SAURIMO",
   "lat": -9.67,
   "lon": 20.38
  },
  {
   "id": "AOM00066285",
   "name": "LUENA LUSO",
   "lat": -11.7833,
   "lon": 19.9267
  },
  {
   "id": "AOM00066318",
   "name": "HUAMBONOVA LISBOA",
   "lat": -12.8,
   "lon": 15.75
  },
  {
   "id": "AOM00066325",
   "name": "SILVA PORTOBIE KUITO",
   "lat": -12.38,
   "lon": 16.95
  },
  {
   "id": "AOXLT237217",
   "name": "HENRIQUE DE CARVALHO",
   "lat": -9.7,
   "lon": 20.4
  },
  {
   "id": "AOXLT400864",
   "name": "SA DA BANDEIRA",
   "lat": -14.9,
   "lon": 13.6
  },
  {
   "id": "AOXLT442550",
   "name": "LOBITO",
   "lat": -12.33,
   "lon": 13.55
  },
  {
   "id": "AOXLT606864",
   "name": "SA DA BANDEIRA",
   "lat": -14.92,
   "lon": 13.48
  },
  {
   "id": "AOXLT714994",
   "name": "PEREIRA DECA",
   "lat": -17.1,
   "lon": 15.7
  },
  {
   "id": "AOXLT781717",
   "name": "CABINDA",
   "lat": -5.55,
   "lon": 12.2
  },
  {
   "id": "AOXLT894964",
   "name": "PORTO AMBOIM",
   "lat": -10.7,
   "lon": 13.75
  },
  {
   "id": "AQC00914869",
   "name": "TAFUNA AP TUTUILA",
   "lat": -14.3333,
   "lon": -170.7167
  },
  {
   "id": "AQW00061705",
   "name": "PAGO PAGO WSO AP",
   "lat": -14.3306,
   "lon": -170.7136
  },
  {
   "id": "AR000000011",
   "name": "MONTE CASEROS AERO",
   "lat": -30.267,
   "lon": -57.65
  },
  {
   "id": "AR000087007",
   "name": "LA QUIACA OBSERVATO",
   "lat": -22.1,
   "lon": -65.6
  },
  {
   "id": "AR000087065",
   "name": "RIVADAVIA",
   "lat": -24.167,
   "lon": -62.9
  },
  {
   "id": "AR000087078",
   "name": "LAS LOMITAS",
   "lat": -24.7,
   "lon": -60.583
  },
  {
   "id": "AR000087129",
   "name": "SANTIAGO DEL ESTERO",
   "lat": -27.767,
   "lon": -64.3
  },
  {
   "id": "AR000087155",
   "name": "RESISTENCIA AERO",
   "lat": -27.45,
   "lon": -59.05
  },
  {
   "id": "AR000087217",
   "name": "LA RIOJA AERO",
   "lat": -29.383,
   "lon": -66.817
  },
  {
   "id": "AR000087257",
   "name": "CERES AERO",
   "lat": -29.883,
   "lon": -61.95
  },
  {
   "id": "AR000087270",
   "name": "RECONQUISTA AERO",
   "lat": -29.183,
   "lon": -59.7
  },
  {
   "id": "AR000087344",
   "name": "CORDOBA AERO",
   "lat": -31.317,
   "lon": -64.217
  },
  {
   "id": "AR000087374",
   "name": "PARANA AERO",
   "lat": -31.783,
   "lon": -60.483
  },
  {
   "id": "AR000087418",
   "name": "MENDOZA AERO",
   "lat": -32.833,
   "lon": -68.783
  },
  {
   "id": "AR000087534",
   "name": "LABOULAYE AERO",
   "lat": -34.133,
   "lon": -63.367
  },
  {
   "id": "AR000087623",
   "name": "SANTA ROSA AERO",
   "lat": -36.567,
   "lon": -64.266
  },
  {
   "id": "AR000087692",
   "name": "MAR DEL PLATA AERO",
   "lat": -37.933,
   "lon": -57.583
  },
  {
   "id": "AR000087715",
   "name": "NEUQUEN AERO",
   "lat": -38.95,
   "lon": -68.133
  },
  {
   "id": "AR000087803",
   "name": "ESQUEL AERO",
   "lat": -42.933,
   "lon": -71.15
  },
  {
   "id": "AR000087828",
   "name": "TRELEW AERO",
   "lat": -43.2,
   "lon": -65.266
  },
  {
   "id": "AR000087860",
   "name": "COMODORO RIVADAVIA",
   "lat": -45.783,
   "lon": -67.5
  },
  {
   "id": "AR000087925",
   "name": "RIO GALLEGOS AERO",
   "lat": -51.617,
   "lon": -69.283
  },
  {
   "id": "AR000870470",
   "name": "SALTA AERO",
   "lat": -24.85,
   "lon": -65.483
  },
  {
   "id": "AR000873050",
   "name": "JACHAL",
   "lat": -30.25,
   "lon": -68.75
  },
  {
   "id": "AR000875440",
   "name": "PEHUAJO AERO",
   "lat": -35.867,
   "lon": -61.9
  },
  {
   "id": "AR000875850",
   "name": "BUENOS AIRES OBSERV",
   "lat": -34.583,
   "lon": -58.483
  },
  {
   "id": "AR000877500",
   "name": "BAHIA BLANCA AERO",
   "lat": -38.733,
   "lon": -62.167
  },
  {
   "id": "ARM00087016",
   "name": "ORAN",
   "lat": -23.153,
   "lon": -64.329
  },
  {
   "id": "ARM00087022",
   "name": "GENERAL ENRIQUE MOSCONI TARTA",
   "lat": -22.62,
   "lon": -63.794
  },
  {
   "id": "ARM00087046",
   "name": "JUJUY",
   "lat": -24.393,
   "lon": -65.098
  },
  {
   "id": "ARM00087121",
   "name": "TENIENTE BENJAMIN MATIENZO",
   "lat": -26.841,
   "lon": -65.105
  },
  {
   "id": "ARM00087148",
   "name": "PRESIDENCIA ROQUE SAENZ PENA",
   "lat": -26.733,
   "lon": -60.483
  },
  {
   "id": "ARM00087162",
   "name": "FORMOSA",
   "lat": -26.213,
   "lon": -58.228
  },
  {
   "id": "ARM00087166",
   "name": "CORRIENTES",
   "lat": -27.446,
   "lon": -58.762
  },
  {
   "id": "ARM00087178",
   "name": "POSADAS",
   "lat": -27.386,
   "lon": -55.971
  },
  {
   "id": "ARM00087222",
   "name": "CATAMARCA",
   "lat": -28.596,
   "lon": -65.752
  },
  {
   "id": "ARM00087244",
   "name": "VILLA MARIA DEL RIO",
   "lat": -29.9,
   "lon": -63.683
  },
  {
   "id": "ARM00087289",
   "name": "PASO DE LOS LIBRES",
   "lat": -29.689,
   "lon": -57.152
  },
  {
   "id": "ARM00087311",
   "name": "SAN JUAN",
   "lat": -31.571,
   "lon": -68.418
  },
  {
   "id": "ARM00087320",
   "name": "CHAMICAL AERO",
   "lat": -30.367,
   "lon": -66.283
  },
  {
   "id": "ARM00087322",
   "name": "CHEPES",
   "lat": -31.333,
   "lon": -66.6
  },
  {
   "id": "ARM00087328",
   "name": "VILLA DOLORES",
   "lat": -31.945,
   "lon": -65.146
  },
  {
   "id": "ARM00087345",
   "name": "CORDOBA OBSERVATORIO",
   "lat": -31.4,
   "lon": -64.183
  },
  {
   "id": "ARM00087349",
   "name": "PILAR OBSERVATORIO",
   "lat": -31.667,
   "lon": -63.883
  },
  {
   "id": "ARM00087395",
   "name": "COMODORO PIERRESTEGUI",
   "lat": -31.297,
   "lon": -57.997
  },
  {
   "id": "ARM00087416",
   "name": "SAN MARTIN",
   "lat": -33.083,
   "lon": -68.417
  },
  {
   "id": "ARM00087420",
   "name": "MENDOZA OBSERVATORIO",
   "lat": -32.883,
   "lon": -68.85
  },
  {
   "id": "ARM00087436",
   "name": "SAN LUIS",
   "lat": -33.273,
   "lon": -66.356
  },
  {
   "id": "ARM00087448",
   "name": "VILLA REYNOLDS",
   "lat": -33.73,
   "lon": -65.387
  },
  {
   "id": "ARM00087453",
   "name": "RIO CUARTO AREA DE MATERIAL",
   "lat": -33.085,
   "lon": -64.261
  },
  {
   "id": "ARM00087467",
   "name": "MARCOS JUAREZ",
   "lat": -32.684,
   "lon": -62.158
  },
  {
   "id": "ARM00087480",
   "name": "ROSARIO",
   "lat": -32.904,
   "lon": -60.785
  },
  {
   "id": "ARM00087497",
   "name": "GUALEGUAYCHU",
   "lat": -33.01,
   "lon": -58.613
  },
  {
   "id": "ARM00087506",
   "name": "MALARGUE",
   "lat": -35.494,
   "lon": -69.574
  },
  {
   "id": "ARM00087509",
   "name": "SAN RAFAEL",
   "lat": -34.588,
   "lon": -68.403
  },
  {
   "id": "ARM00087532",
   "name": "GENERAL PICO",
   "lat": -35.696,
   "lon": -63.758
  },
  {
   "id": "ARM00087548",
   "name": "JUNIN",
   "lat": -34.546,
   "lon": -60.931
  },
  {
   "id": "ARM00087550",
   "name": "NUEVE DE JULIO",
   "lat": -35.45,
   "lon": -60.883
  },
  {
   "id": "ARM00087563",
   "name": "LAS FLORES",
   "lat": -36.067,
   "lon": -59.1
  },
  {
   "id": "ARM00087576",
   "name": "MINISTRO PISTARINI",
   "lat": -34.822,
   "lon": -58.536
  },
  {
   "id": "ARM00087582",
   "name": "AEROPARQUE JORGE NEWBERY",
   "lat": -34.559,
   "lon": -58.416
  },
  {
   "id": "ARM00087593",
   "name": "LA PLATA",
   "lat": -34.972,
   "lon": -57.895
  },
  {
   "id": "ARM00087596",
   "name": "PUNTA INDIO BA",
   "lat": -35.367,
   "lon": -57.283
  },
  {
   "id": "ARM00087637",
   "name": "CORONEL SUAREZ AERO",
   "lat": -37.433,
   "lon": -61.883
  },
  {
   "id": "ARM00087640",
   "name": "BOLIVAR AERO",
   "lat": -36.2,
   "lon": -61.067
  },
  {
   "id": "ARM00087641",
   "name": "AZUL AERO",
   "lat": -36.833,
   "lon": -59.883
  },
  {
   "id": "ARM00087645",
   "name": "TANDIL",
   "lat": -37.237,
   "lon": -59.228
  },
  {
   "id": "ARM00087648",
   "name": "DOLORES AIRPORT",
   "lat": -36.35,
   "lon": -57.733
  },
  {
   "id": "ARM00087679",
   "name": "PIGUE AIRPORT",
   "lat": -37.6,
   "lon": -62.383
  },
  {
   "id": "ARM00087688",
   "name": "TRES ARROYOS",
   "lat": -38.387,
   "lon": -60.33
  },
  {
   "id": "ARM00087736",
   "name": "RIO COLORADO",
   "lat": -39.017,
   "lon": -64.083
  },
  {
   "id": "ARM00087765",
   "name": "SAN CARLOS DE BARILOCHE",
   "lat": -41.151,
   "lon": -71.158
  },
  {
   "id": "ARM00087774",
   "name": "MAQUINCHAO",
   "lat": -41.25,
   "lon": -68.733
  },
  {
   "id": "ARM00087784",
   "name": "SAN ANTONIO OESTE AERO",
   "lat": -40.783,
   "lon": -65.1
  },
  {
   "id": "ARM00087791",
   "name": "GOBERNADOR CASTELLO",
   "lat": -40.869,
   "lon": -63.0
  },
  {
   "id": "ARM00087800",
   "name": "EL BOLSON",
   "lat": -41.943,
   "lon": -71.532
  },
  {
   "id": "ARM00087814",
   "name": "PASO DE INDIOS",
   "lat": -43.817,
   "lon": -68.883
  },
  {
   "id": "ARM00087823",
   "name": "PMADRYN AERO",
   "lat": -42.733,
   "lon": -65.067
  },
  {
   "id": "ARM00087852",
   "name": "PERITO MORENO ARPT",
   "lat": -46.517,
   "lon": -71.017
  },
  {
   "id": "ARM00087880",
   "name": "GOBERNADOR GREGORES",
   "lat": -48.783,
   "lon": -70.167
  },
  {
   "id": "ARM00087896",
   "name": "PUERTO DESEADO",
   "lat": -47.735,
   "lon": -65.904
  },
  {
   "id": "ARM00087903",
   "name": "LAGO ARGENTINO ARPT",
   "lat": -50.333,
   "lon": -72.3
  },
  {
   "id": "ARM00087904",
   "name": "EL CALAFATE AERO",
   "lat": -50.267,
   "lon": -72.05
  },
  {
   "id": "ARM00087909",
   "name": "SAN JULIAN",
   "lat": -49.307,
   "lon": -67.803
  },
  {
   "id": "ARM00087934",
   "name": "RIO GRANDE",
   "lat": -53.778,
   "lon": -67.749
  },
  {
   "id": "ARM00087938",
   "name": "USHUAIA MALVINAS ARGENTINAS",
   "lat": -54.843,
   "lon": -68.296
  },
  {
   "id": "ARN00000038",
   "name": "GENERALVILLEGAS INTA",
   "lat": -34.92,
   "lon": -62.73
  },
  {
   "id": "ARN00000067",
   "name": "BELLAVISTA INTA",
   "lat": -28.43,
   "lon": -58.92
  },
  {
   "id": "ARN00000070",
   "name": "CATAMARCA INTASUMALAO",
   "lat": -28.48,
   "lon": -65.73
  },
  {
   "id": "ARN00000098",
   "name": "RAFAELA INTA",
   "lat": -31.18,
   "lon": -61.55
  },
  {
   "id": "ARN00000145",
   "name": "PERGAMINO INTA",
   "lat": -33.93,
   "lon": -60.55
  },
  {
   "id": "ARN00000216",
   "name": "BARROW INTA",
   "lat": -38.32,
   "lon": -60.25
  },
  {
   "id": "ARN00000230",
   "name": "ALTOVALLEDERIONEGRO INTA",
   "lat": -39.01,
   "lon": -67.4
  },
  {
   "id": "ARN00000343",
   "name": "BORDENAVE INTABUENOSAIRES",
   "lat": -37.85,
   "lon": -63.02
  },
  {
   "id": "ARN00000358",
   "name": "CASTELAR INTA",
   "lat": -34.67,
   "lon": -58.65
  },
  {
   "id": "ARN00000400",
   "name": "BALCARCE INTABUENOSAIRES",
   "lat": -37.75,
   "lon": -58.3
  },
  {
   "id": "ARN00000416",
   "name": "LASBREAS INTA",
   "lat": -27.1,
   "lon": -61.1
  },
  {
   "id": "ARN00000421",
   "name": "HILARIOASCASUBI INTA",
   "lat": -39.38,
   "lon": -62.62
  },
  {
   "id": "ARN00000423",
   "name": "CERROAZUL INTA",
   "lat": -27.65,
   "lon": -55.43
  },
  {
   "id": "ARN00000438",
   "name": "MANFREDI INTA",
   "lat": -31.82,
   "lon": -63.77
  },
  {
   "id": "ARN00000442",
   "name": "LACONSULTA INTA MENDOZA",
   "lat": -33.73,
   "lon": -69.12
  },
  {
   "id": "ARN00000444",
   "name": "FAMAILLA INTA TUCUMA",
   "lat": -27.05,
   "lon": -65.42
  },
  {
   "id": "ARN00000445",
   "name": "SANJUANPOCITO INTA",
   "lat": -31.37,
   "lon": -68.32
  },
  {
   "id": "ARN00000446",
   "name": "ANGUIL INTALAPAMPA",
   "lat": -36.5,
   "lon": -63.98
  },
  {
   "id": "ARN00000448",
   "name": "RAMACAIDA INTA MENDOZA",
   "lat": -34.67,
   "lon": -68.38
  },
  {
   "id": "ARN00000457",
   "name": "ABRAPAMPA INTA JUJUY",
   "lat": -22.83,
   "lon": -65.85
  },
  {
   "id": "ARN00000464",
   "name": "ELCOLORADO INTA",
   "lat": -26.3,
   "lon": -59.38
  },
  {
   "id": "ARN00000472",
   "name": "OLIVEROS INTA",
   "lat": -32.55,
   "lon": -60.85
  },
  {
   "id": "ARN00000492",
   "name": "SANPEDRO INTA",
   "lat": -33.68,
   "lon": -59.68
  },
  {
   "id": "ARN00000496",
   "name": "CONCORDIA INTA",
   "lat": -31.38,
   "lon": -58.03
  },
  {
   "id": "ARN00000497",
   "name": "CONCDELURUGUAY INTA",
   "lat": -32.4,
   "lon": -58.23
  },
  {
   "id": "ARN00000498",
   "name": "MERCEDES INTACTES",
   "lat": -29.17,
   "lon": -58.02
  },
  {
   "id": "ARXLT052250",
   "name": "SANTA CRUZ PUERTO WAS 879140",
   "lat": -50.2,
   "lon": -68.4
  },
  {
   "id": "ARXLT082667",
   "name": "CHOS MALAL",
   "lat": -37.1,
   "lon": -70.3
  },
  {
   "id": "ARXLT097381",
   "name": "CIPOLLETTI",
   "lat": -38.95,
   "lon": -67.98
  },
  {
   "id": "ARXLT099684",
   "name": "GEN CONESA ARGENTI",
   "lat": -36.5,
   "lon": -57.3
  },
  {
   "id": "ARXLT122749",
   "name": "COLONIA SARM",
   "lat": -45.58,
   "lon": -69.07
  },
  {
   "id": "ARXLT146898",
   "name": "LAS LAJAS",
   "lat": -38.53,
   "lon": -70.38
  },
  {
   "id": "ARXLT185239",
   "name": "MAR DEL PLATAWAS 876940",
   "lat": -38.0,
   "lon": -57.1
  },
  {
   "id": "ARXLT203610",
   "name": "SAUCE VIEJO AERO",
   "lat": -31.7,
   "lon": -60.81
  },
  {
   "id": "ARXLT208531",
   "name": "CHACRAS DE CORIA",
   "lat": -32.98,
   "lon": -68.86
  },
  {
   "id": "ARXLT242717",
   "name": "CHOELE CHOEL ARGENT",
   "lat": -39.2,
   "lon": -66.8
  },
  {
   "id": "ARXLT297472",
   "name": "PUNTA DUNGEN",
   "lat": -52.4,
   "lon": -68.4
  },
  {
   "id": "ARXLT309443",
   "name": "MACACHIN ARGENTINA",
   "lat": -37.1,
   "lon": -63.7
  },
  {
   "id": "ARXLT328770",
   "name": "GENERAL ACHA",
   "lat": -37.4,
   "lon": -64.6
  },
  {
   "id": "ARXLT361672",
   "name": "ANDALGALA ARGENTINA",
   "lat": -27.6,
   "lon": -66.2
  },
  {
   "id": "ARXLT374324",
   "name": "VICTORICA",
   "lat": -36.22,
   "lon": -65.42
  },
  {
   "id": "ARXLT417177",
   "name": "GENERAL PAZ",
   "lat": -27.75,
   "lon": -57.63
  },
  {
   "id": "ARXLT498842",
   "name": "GOYA",
   "lat": -29.1,
   "lon": -59.3
  },
  {
   "id": "ARXLT513600",
   "name": "AZUL ARGENTINA",
   "lat": -36.8,
   "lon": -59.8
  },
  {
   "id": "ARXLT538245",
   "name": "VILLAGUAY AERO",
   "lat": -31.85,
   "lon": -59.08
  },
  {
   "id": "ARXLT581111",
   "name": "MERCEDES ARGENTINA",
   "lat": -34.7,
   "lon": -59.5
  },
  {
   "id": "ARXLT645851",
   "name": "LA PAZ ARGENTINA",
   "lat": -30.8,
   "lon": -59.8
  },
  {
   "id": "ARXLT657745",
   "name": "PTO PTE FRANCO PAR",
   "lat": -25.6,
   "lon": -54.6
  },
  {
   "id": "ARXLT662267",
   "name": "CEVIL POZO AERO",
   "lat": -26.9,
   "lon": -65.1
  },
  {
   "id": "ARXLT663345",
   "name": "CASILDA ARGENTINA",
   "lat": -33.0,
   "lon": -61.2
  },
  {
   "id": "ARXLT678345",
   "name": "BELL VILLE ARGENTIN",
   "lat": -32.5,
   "lon": -62.6
  },
  {
   "id": "ARXLT725249",
   "name": "ESQUEL",
   "lat": -42.9,
   "lon": -71.35
  },
  {
   "id": "ARXLT725895",
   "name": "TUCUMAN",
   "lat": -26.85,
   "lon": -65.18
  },
  {
   "id": "ARXLT754115",
   "name": "PCIA R SCIE",
   "lat": -26.82,
   "lon": -60.45
  },
  {
   "id": "ARXLT811415",
   "name": "SAN JUANARGWAS 873120",
   "lat": -31.5,
   "lon": -68.7
  },
  {
   "id": "ARXLT834021",
   "name": "SALTA",
   "lat": -24.78,
   "lon": -65.42
  },
  {
   "id": "ARXLT847638",
   "name": "SAN MIGUEL ARGENTIN",
   "lat": -34.3,
   "lon": -58.7
  },
  {
   "id": "ARXLT893853",
   "name": "PATAGONES ARGENTINA",
   "lat": -46.8,
   "lon": -69.5
  },
  {
   "id": "ARXLT894786",
   "name": "PUERTO MADRYN WAS 878280",
   "lat": -42.8,
   "lon": -65.0
  },
  {
   "id": "ARXLT926859",
   "name": "TUCUMAN OBSERVATORIO",
   "lat": -26.8,
   "lon": -65.2
  },
  {
   "id": "ARXLT945445",
   "name": "CATAMARCA AEROARG",
   "lat": -28.5,
   "lon": -65.8
  },
  {
   "id": "ARXLT954992",
   "name": "ANO NUEVO",
   "lat": -54.7,
   "lon": -64.2
  },
  {
   "id": "ARXLT965754",
   "name": "VERA ARGENTINA",
   "lat": -29.4,
   "lon": -60.2
  },
  {
   "id": "ASM00094275",
   "name": "GEORGETOWN POST OFFICE",
   "lat": -18.3,
   "lon": 143.55
  },
  {
   "id": "ASM00094299",
   "name": "WILLIS ISLAND",
   "lat": -16.288,
   "lon": 149.965
  },
  {
   "id": "ASM00094940",
   "name": "JERVIS BAY",
   "lat": -35.083,
   "lon": 150.8
  },
  {
   "id": "ASM00094995",
   "name": "LORD HOWE ISLAND AERO",
   "lat": -31.542,
   "lon": 159.079
  },
  {
   "id": "ASM00094997",
   "name": "HEARD ISLAND THE SPIT",
   "lat": -53.1,
   "lon": 73.717
  },
  {
   "id": "ASM00094998",
   "name": "MACQUARIE ISLAND",
   "lat": -54.499,
   "lon": 158.937
  },
  {
   "id": "ASM00095997",
   "name": "HEARD ISLAND ATLAS COVE",
   "lat": -53.017,
   "lon": 73.4
  },
  {
   "id": "ASN00001005",
   "name": "WYNDHAM PORT",
   "lat": -15.4644,
   "lon": 128.1
  },
  {
   "id": "ASN00001006",
   "name": "WYNDHAM AERO",
   "lat": -15.51,
   "lon": 128.1503
  },
  {
   "id": "ASN00001007",
   "name": "TROUGHTON ISLAND",
   "lat": -13.7542,
   "lon": 126.1485
  },
  {
   "id": "ASN00001009",
   "name": "KURI BAY",
   "lat": -15.4875,
   "lon": 124.5222
  },
  {
   "id": "ASN00001012",
   "name": "MITCHELL PLATEAU",
   "lat": -14.7925,
   "lon": 125.8258
  },
  {
   "id": "ASN00001013",
   "name": "WYNDHAM",
   "lat": -15.4872,
   "lon": 128.1247
  },
  {
   "id": "ASN00001018",
   "name": "MOUNT ELIZABETH",
   "lat": -16.4181,
   "lon": 126.1025
  },
  {
   "id": "ASN00001019",
   "name": "KALUMBURU",
   "lat": -14.2964,
   "lon": 126.6453
  },
  {
   "id": "ASN00001020",
   "name": "TRUSCOTT",
   "lat": -14.09,
   "lon": 126.3867
  },
  {
   "id": "ASN00001021",
   "name": "KALUMBURU MISSION",
   "lat": -14.2961,
   "lon": 126.6431
  },
  {
   "id": "ASN00001025",
   "name": "DOONGAN",
   "lat": -15.3797,
   "lon": 126.3114
  },
  {
   "id": "ASN00002011",
   "name": "OLD HALLS CREEK",
   "lat": -18.2519,
   "lon": 127.7817
  },
  {
   "id": "ASN00002012",
   "name": "HALLS CREEK AIRPORT",
   "lat": -18.2292,
   "lon": 127.6636
  },
  {
   "id": "ASN00002014",
   "name": "KIMBERLEY RESSTATION",
   "lat": -15.6547,
   "lon": 128.7092
  },
  {
   "id": "ASN00002032",
   "name": "WARMUN",
   "lat": -17.0156,
   "lon": 128.2175
  },
  {
   "id": "ASN00002038",
   "name": "KUNUNURRA",
   "lat": -15.7828,
   "lon": 128.7353
  },
  {
   "id": "ASN00002056",
   "name": "KUNUNURRA AERO",
   "lat": -15.7814,
   "lon": 128.71
  },
  {
   "id": "ASN00002064",
   "name": "ARGYLE AERODROME",
   "lat": -16.6381,
   "lon": 128.4517
  },
  {
   "id": "ASN00002071",
   "name": "HALLS CREEK COMPARISON",
   "lat": -18.2303,
   "lon": 127.6625
  },
  {
   "id": "ASN00003002",
   "name": "BROOME POST OFFICE",
   "lat": -17.95,
   "lon": 122.25
  },
  {
   "id": "ASN00003003",
   "name": "BROOME AIRPORT",
   "lat": -17.9475,
   "lon": 122.2353
  },
  {
   "id": "ASN00003004",
   "name": "CAPE LEVEQUE",
   "lat": -16.3961,
   "lon": 122.9278
  },
  {
   "id": "ASN00003006",
   "name": "FITZROY CROSSING COMP",
   "lat": -18.1919,
   "lon": 125.5644
  },
  {
   "id": "ASN00003007",
   "name": "DERBY POST OFFICE",
   "lat": -17.3044,
   "lon": 123.6292
  },
  {
   "id": "ASN00003025",
   "name": "COCKATOO ISLAND",
   "lat": -16.09,
   "lon": 123.5942
  },
  {
   "id": "ASN00003030",
   "name": "BIDYADANGA",
   "lat": -18.6844,
   "lon": 121.7803
  },
  {
   "id": "ASN00003032",
   "name": "DERBY AERO",
   "lat": -17.3706,
   "lon": 123.6611
  },
  {
   "id": "ASN00003057",
   "name": "CYGNET BAY",
   "lat": -16.4514,
   "lon": 123.0086
  },
  {
   "id": "ASN00003080",
   "name": "CURTIN AERO",
   "lat": -17.5736,
   "lon": 123.8217
  },
  {
   "id": "ASN00003093",
   "name": "FITZROY CROSSING AERO",
   "lat": -18.1814,
   "lon": 125.5619
  },
  {
   "id": "ASN00003096",
   "name": "WEST ROEBUCK",
   "lat": -17.8964,
   "lon": 122.3122
  },
  {
   "id": "ASN00004002",
   "name": "PORT HEDLAND POST OFFICE",
   "lat": -20.3139,
   "lon": 118.5742
  },
  {
   "id": "ASN00004019",
   "name": "MANDORA",
   "lat": -19.7419,
   "lon": 120.8436
  },
  {
   "id": "ASN00004020",
   "name": "MARBLE BAR COMPARISON",
   "lat": -21.1756,
   "lon": 119.7497
  },
  {
   "id": "ASN00004027",
   "name": "NULLAGINE",
   "lat": -21.8861,
   "lon": 120.1103
  },
  {
   "id": "ASN00004028",
   "name": "PARDOO STATION",
   "lat": -20.1078,
   "lon": 119.5811
  },
  {
   "id": "ASN00004032",
   "name": "PORT HEDLAND AIRPORT",
   "lat": -20.3725,
   "lon": 118.6317
  },
  {
   "id": "ASN00004035",
   "name": "ROEBOURNE",
   "lat": -20.7767,
   "lon": 117.1456
  },
  {
   "id": "ASN00004043",
   "name": "REDMONT",
   "lat": -21.9931,
   "lon": 119.0131
  },
  {
   "id": "ASN00004074",
   "name": "GOLDSWORTHY",
   "lat": -20.3422,
   "lon": 119.5206
  },
  {
   "id": "ASN00004083",
   "name": "KARRATHA AERO",
   "lat": -20.7097,
   "lon": 116.7742
  },
  {
   "id": "ASN00004090",
   "name": "ROEBOURNE AERO",
   "lat": -20.7594,
   "lon": 117.1583
  },
  {
   "id": "ASN00004106",
   "name": "MARBLE BAR",
   "lat": -21.1756,
   "lon": 119.7497
  },
  {
   "id": "ASN00005007",
   "name": "LEARMONTH AIRPORT",
   "lat": -22.2406,
   "lon": 114.0967
  },
  {
   "id": "ASN00005008",
   "name": "MARDIE",
   "lat": -21.1906,
   "lon": 115.9797
  },
  {
   "id": "ASN00005016",
   "name": "ONSLOW",
   "lat": -21.6364,
   "lon": 115.1117
  },
  {
   "id": "ASN00005017",
   "name": "ONSLOW AIRPORT",
   "lat": -21.6689,
   "lon": 115.1092
  },
  {
   "id": "ASN00005024",
   "name": "VLAMINGH HEAD",
   "lat": -21.8067,
   "lon": 114.1072
  },
  {
   "id": "ASN00005026",
   "name": "WITTENOOM",
   "lat": -22.2425,
   "lon": 118.3358
  },
  {
   "id": "ASN00005058",
   "name": "BARROW ISLAND",
   "lat": -20.8206,
   "lon": 115.3931
  },
  {
   "id": "ASN00005061",
   "name": "DAMPIER SALT",
   "lat": -20.7278,
   "lon": 116.7483
  },
  {
   "id": "ASN00005069",
   "name": "PANNAWONICA",
   "lat": -21.6392,
   "lon": 116.3308
  },
  {
   "id": "ASN00005072",
   "name": "TOM PRICE",
   "lat": -22.6967,
   "lon": 117.7703
  },
  {
   "id": "ASN00005084",
   "name": "THEVENARD ISLAND",
   "lat": -21.4606,
   "lon": 115.0197
  },
  {
   "id": "ASN00005094",
   "name": "BARROW ISLAND AIRPORT",
   "lat": -20.875,
   "lon": 115.4056
  },
  {
   "id": "ASN00006011",
   "name": "CARNARVON AIRPORT",
   "lat": -24.8878,
   "lon": 113.67
  },
  {
   "id": "ASN00006022",
   "name": "GASCOYNE JUNCTION",
   "lat": -25.0544,
   "lon": 115.21
  },
  {
   "id": "ASN00006025",
   "name": "HAMELIN POOL",
   "lat": -26.4008,
   "lon": 114.1667
  },
  {
   "id": "ASN00006044",
   "name": "DENHAM",
   "lat": -25.9261,
   "lon": 113.5319
  },
  {
   "id": "ASN00006062",
   "name": "CARNARVON POST OFFICE",
   "lat": -24.9,
   "lon": 113.65
  },
  {
   "id": "ASN00006072",
   "name": "EMU CREEK STATION",
   "lat": -23.0314,
   "lon": 115.0414
  },
  {
   "id": "ASN00006099",
   "name": "MURCHISON",
   "lat": -26.8936,
   "lon": 115.9561
  },
  {
   "id": "ASN00006105",
   "name": "SHARK BAY AIRPORT",
   "lat": -25.8925,
   "lon": 113.5772
  },
  {
   "id": "ASN00007017",
   "name": "CUE",
   "lat": -27.4233,
   "lon": 117.8994
  },
  {
   "id": "ASN00007045",
   "name": "MEEKATHARRA AIRPORT",
   "lat": -26.6136,
   "lon": 118.5372
  },
  {
   "id": "ASN00007046",
   "name": "MEEKATHARRA POST OFFICE",
   "lat": -26.5933,
   "lon": 118.4883
  },
  {
   "id": "ASN00007057",
   "name": "MOUNT MAGNET",
   "lat": -28.0619,
   "lon": 117.8503
  },
  {
   "id": "ASN00007062",
   "name": "MUNDIWINDI",
   "lat": -23.7942,
   "lon": 120.2442
  },
  {
   "id": "ASN00007064",
   "name": "MURGOO",
   "lat": -27.3636,
   "lon": 116.4261
  },
  {
   "id": "ASN00007080",
   "name": "THREE RIVERS",
   "lat": -25.1256,
   "lon": 119.1514
  },
  {
   "id": "ASN00007091",
   "name": "YALGOO",
   "lat": -28.3392,
   "lon": 116.6828
  },
  {
   "id": "ASN00007139",
   "name": "PAYNES FIND",
   "lat": -29.2708,
   "lon": 117.6836
  },
  {
   "id": "ASN00007151",
   "name": "NEWMAN",
   "lat": -23.3683,
   "lon": 119.7314
  },
  {
   "id": "ASN00007176",
   "name": "NEWMAN AERO",
   "lat": -23.4169,
   "lon": 119.7989
  },
  {
   "id": "ASN00007178",
   "name": "PARABURDOO",
   "lat": -23.2028,
   "lon": 117.6692
  },
  {
   "id": "ASN00007185",
   "name": "PARABURDOO AERO",
   "lat": -23.1725,
   "lon": 117.7494
  },
  {
   "id": "ASN00007600",
   "name": "MOUNT MAGNET AERO",
   "lat": -28.1156,
   "lon": 117.8425
  },
  {
   "id": "ASN00008025",
   "name": "CARNAMAH",
   "lat": -29.6889,
   "lon": 115.8869
  },
  {
   "id": "ASN00008028",
   "name": "NABAWA",
   "lat": -28.5008,
   "lon": 114.7897
  },
  {
   "id": "ASN00008039",
   "name": "DALWALLINU COMPARISON",
   "lat": -30.2772,
   "lon": 116.6619
  },
  {
   "id": "ASN00008050",
   "name": "GERALDTON TOWN",
   "lat": -28.7769,
   "lon": 114.605
  },
  {
   "id": "ASN00008051",
   "name": "GERALDTON AIRPORT",
   "lat": -28.7953,
   "lon": 114.6975
  },
  {
   "id": "ASN00008091",
   "name": "MOORA",
   "lat": -30.6417,
   "lon": 116.0072
  },
  {
   "id": "ASN00008093",
   "name": "MORAWA",
   "lat": -29.2103,
   "lon": 116.0089
  },
  {
   "id": "ASN00008095",
   "name": "MULLEWA",
   "lat": -28.5367,
   "lon": 115.5142
  },
  {
   "id": "ASN00008137",
   "name": "WONGAN HILLS",
   "lat": -30.8917,
   "lon": 116.7186
  },
  {
   "id": "ASN00008138",
   "name": "WONGAN HILLS RESSTATION",
   "lat": -30.8408,
   "lon": 116.7267
  },
  {
   "id": "ASN00008151",
   "name": "WALEBING",
   "lat": -30.665,
   "lon": 116.1386
  },
  {
   "id": "ASN00008225",
   "name": "ENEABBA",
   "lat": -29.8183,
   "lon": 115.2722
  },
  {
   "id": "ASN00008251",
   "name": "KALBARRI",
   "lat": -27.7119,
   "lon": 114.165
  },
  {
   "id": "ASN00008267",
   "name": "NOKANENA",
   "lat": -28.3517,
   "lon": 114.5778
  },
  {
   "id": "ASN00008290",
   "name": "NORTH ISLAND",
   "lat": -28.3008,
   "lon": 113.5936
  },
  {
   "id": "ASN00008296",
   "name": "MORAWA AIRPORT",
   "lat": -29.2039,
   "lon": 116.0247
  },
  {
   "id": "ASN00008297",
   "name": "DALWALLINU",
   "lat": -30.2761,
   "lon": 116.6714
  },
  {
   "id": "ASN00009017",
   "name": "FREMANTLE",
   "lat": -32.055,
   "lon": 115.75
  },
  {
   "id": "ASN00009021",
   "name": "PERTH AIRPORT",
   "lat": -31.9275,
   "lon": 115.9764
  },
  {
   "id": "ASN00009034",
   "name": "PERTH REGIONAL OFFICE",
   "lat": -31.95,
   "lon": 115.8667
  },
  {
   "id": "ASN00009035",
   "name": "NEDLANDS UWA",
   "lat": -31.9861,
   "lon": 115.8192
  },
  {
   "id": "ASN00009037",
   "name": "BADGINGARRA RESEARCH STN",
   "lat": -30.3381,
   "lon": 115.5394
  },
  {
   "id": "ASN00009038",
   "name": "ROTTNEST ISLAND LIGHTHOUSE",
   "lat": -32.0089,
   "lon": 115.5022
  },
  {
   "id": "ASN00009053",
   "name": "PEARCE RAAF",
   "lat": -31.6669,
   "lon": 116.0189
  },
  {
   "id": "ASN00009058",
   "name": "KALAMUNDA",
   "lat": -31.9822,
   "lon": 116.0594
  },
  {
   "id": "ASN00009064",
   "name": "KWINANA BP REFINERY",
   "lat": -32.2258,
   "lon": 115.7611
  },
  {
   "id": "ASN00009106",
   "name": "GOSNELLS CITY",
   "lat": -32.0486,
   "lon": 115.9839
  },
  {
   "id": "ASN00009111",
   "name": "KARNET",
   "lat": -32.44,
   "lon": 116.0744
  },
  {
   "id": "ASN00009114",
   "name": "LANCELIN",
   "lat": -31.0164,
   "lon": 115.33
  },
  {
   "id": "ASN00009131",
   "name": "JURIEN BAY",
   "lat": -30.3081,
   "lon": 115.0311
  },
  {
   "id": "ASN00009172",
   "name": "JANDAKOT AERO",
   "lat": -32.1011,
   "lon": 115.8794
  },
  {
   "id": "ASN00009178",
   "name": "GINGIN AERO",
   "lat": -31.4628,
   "lon": 115.8642
  },
  {
   "id": "ASN00009193",
   "name": "ROTTNEST ISLAND",
   "lat": -32.0069,
   "lon": 115.5022
  },
  {
   "id": "ASN00009194",
   "name": "MEDINA RESEARCH CENTRE",
   "lat": -32.2208,
   "lon": 115.8075
  },
  {
   "id": "ASN00009215",
   "name": "SWANBOURNE",
   "lat": -31.9558,
   "lon": 115.7619
  },
  {
   "id": "ASN00009225",
   "name": "PERTH METRO",
   "lat": -31.9192,
   "lon": 115.8728
  },
  {
   "id": "ASN00009240",
   "name": "BICKLEY",
   "lat": -32.0056,
   "lon": 116.1364
  },
  {
   "id": "ASN00009256",
   "name": "GARDEN ISLAND HSF",
   "lat": -32.2433,
   "lon": 115.6839
  },
  {
   "id": "ASN00009500",
   "name": "ALBANY",
   "lat": -35.0289,
   "lon": 117.8808
  },
  {
   "id": "ASN00009510",
   "name": "BRIDGETOWN COMPARISON",
   "lat": -33.9575,
   "lon": 116.1375
  },
  {
   "id": "ASN00009514",
   "name": "BUNBURY POST OFFICE",
   "lat": -33.3267,
   "lon": 115.63
  },
  {
   "id": "ASN00009515",
   "name": "BUSSELTON SHIRE",
   "lat": -33.6611,
   "lon": 115.3456
  },
  {
   "id": "ASN00009518",
   "name": "CAPE LEEUWIN",
   "lat": -34.3728,
   "lon": 115.1358
  },
  {
   "id": "ASN00009519",
   "name": "CAPE NATURALISTE",
   "lat": -33.5372,
   "lon": 115.0189
  },
  {
   "id": "ASN00009534",
   "name": "DONNYBROOK",
   "lat": -33.5719,
   "lon": 115.8247
  },
  {
   "id": "ASN00009538",
   "name": "DWELLINGUP",
   "lat": -32.7103,
   "lon": 116.0594
  },
  {
   "id": "ASN00009541",
   "name": "ESPERANCE POST OFFICE",
   "lat": -33.85,
   "lon": 121.8833
  },
  {
   "id": "ASN00009542",
   "name": "ESPERANCE AERO",
   "lat": -33.6825,
   "lon": 121.8275
  },
  {
   "id": "ASN00009569",
   "name": "BUSSELTON",
   "lat": -33.655,
   "lon": 115.3194
  },
  {
   "id": "ASN00009572",
   "name": "MANDURAH PARK",
   "lat": -32.5031,
   "lon": 115.7664
  },
  {
   "id": "ASN00009573",
   "name": "MANJIMUP",
   "lat": -34.2508,
   "lon": 116.145
  },
  {
   "id": "ASN00009581",
   "name": "MOUNT BARKER",
   "lat": -34.625,
   "lon": 117.6361
  },
  {
   "id": "ASN00009592",
   "name": "PEMBERTON",
   "lat": -34.4478,
   "lon": 116.0433
  },
  {
   "id": "ASN00009603",
   "name": "BUSSELTON AERO",
   "lat": -33.6858,
   "lon": 115.4008
  },
  {
   "id": "ASN00009617",
   "name": "BRIDGETOWN",
   "lat": -33.9486,
   "lon": 116.1311
  },
  {
   "id": "ASN00009628",
   "name": "COLLIE",
   "lat": -33.36,
   "lon": 116.1467
  },
  {
   "id": "ASN00009631",
   "name": "ESPERANCE DOWNS RESEARCH STN",
   "lat": -33.6031,
   "lon": 121.7828
  },
  {
   "id": "ASN00009637",
   "name": "DENMARK RESSTN",
   "lat": -34.9511,
   "lon": 117.37
  },
  {
   "id": "ASN00009642",
   "name": "WOKALUP",
   "lat": -33.1336,
   "lon": 115.8808
  },
  {
   "id": "ASN00009741",
   "name": "ALBANY AIRPORT",
   "lat": -34.9414,
   "lon": 117.8022
  },
  {
   "id": "ASN00009746",
   "name": "WITCHCLIFFE",
   "lat": -34.0281,
   "lon": 115.1042
  },
  {
   "id": "ASN00009754",
   "name": "METTLER",
   "lat": -34.5961,
   "lon": 118.5519
  },
  {
   "id": "ASN00009787",
   "name": "ECLIPSE ISLAND",
   "lat": -35.1833,
   "lon": 117.8833
  },
  {
   "id": "ASN00009789",
   "name": "ESPERANCE",
   "lat": -33.83,
   "lon": 121.8925
  },
  {
   "id": "ASN00009812",
   "name": "HARVEY",
   "lat": -33.0789,
   "lon": 115.8806
  },
  {
   "id": "ASN00009842",
   "name": "JARRAHWOOD",
   "lat": -33.7964,
   "lon": 115.6658
  },
  {
   "id": "ASN00009871",
   "name": "WINDY HARBOUR",
   "lat": -34.8361,
   "lon": 116.0308
  },
  {
   "id": "ASN00009887",
   "name": "MANDURAH",
   "lat": -32.5211,
   "lon": 115.75
  },
  {
   "id": "ASN00009961",
   "name": "HOPETOUN NORTH",
   "lat": -33.9306,
   "lon": 120.1283
  },
  {
   "id": "ASN00009964",
   "name": "ROCKY GULLY",
   "lat": -34.5714,
   "lon": 117.0106
  },
  {
   "id": "ASN00009965",
   "name": "BUNBURY",
   "lat": -33.3567,
   "lon": 115.6447
  },
  {
   "id": "ASN00009968",
   "name": "SHANNON",
   "lat": -34.5683,
   "lon": 116.3367
  },
  {
   "id": "ASN00009977",
   "name": "MANDURAH",
   "lat": -32.5219,
   "lon": 115.7119
  },
  {
   "id": "ASN00009994",
   "name": "COLLIE EAST",
   "lat": -33.3608,
   "lon": 116.1717
  },
  {
   "id": "ASN00009998",
   "name": "NORTH WALPOLE",
   "lat": -34.9469,
   "lon": 116.7222
  },
  {
   "id": "ASN00010007",
   "name": "BENCUBBIN",
   "lat": -30.8081,
   "lon": 117.8603
  },
  {
   "id": "ASN00010035",
   "name": "CUNDERDIN",
   "lat": -31.6494,
   "lon": 117.2331
  },
  {
   "id": "ASN00010058",
   "name": "GOOMALLING",
   "lat": -31.2994,
   "lon": 116.8269
  },
  {
   "id": "ASN00010073",
   "name": "KELLERBERRIN",
   "lat": -31.6183,
   "lon": 117.7217
  },
  {
   "id": "ASN00010092",
   "name": "MERREDIN",
   "lat": -31.4756,
   "lon": 118.2789
  },
  {
   "id": "ASN00010093",
   "name": "MERREDIN RESEARCH STATION",
   "lat": -31.4994,
   "lon": 118.2242
  },
  {
   "id": "ASN00010111",
   "name": "NORTHAM",
   "lat": -31.6508,
   "lon": 116.6586
  },
  {
   "id": "ASN00010144",
   "name": "YORK POST OFFICE",
   "lat": -31.8836,
   "lon": 116.7581
  },
  {
   "id": "ASN00010152",
   "name": "MURESK AGRICCOLLEGE",
   "lat": -31.75,
   "lon": 116.6833
  },
  {
   "id": "ASN00010244",
   "name": "BAKERS HILL CSIRO",
   "lat": -31.7603,
   "lon": 116.4781
  },
  {
   "id": "ASN00010286",
   "name": "CUNDERDIN AIRFIELD",
   "lat": -31.6219,
   "lon": 117.2217
  },
  {
   "id": "ASN00010311",
   "name": "YORK",
   "lat": -31.8997,
   "lon": 116.765
  },
  {
   "id": "ASN00010515",
   "name": "BEVERLEY",
   "lat": -32.1083,
   "lon": 116.9247
  },
  {
   "id": "ASN00010524",
   "name": "BROOKTON",
   "lat": -32.3725,
   "lon": 117.0072
  },
  {
   "id": "ASN00010536",
   "name": "CORRIGIN",
   "lat": -32.3292,
   "lon": 117.8733
  },
  {
   "id": "ASN00010554",
   "name": "GLEN LOSSIE",
   "lat": -33.8167,
   "lon": 117.1667
  },
  {
   "id": "ASN00010568",
   "name": "HYDEN",
   "lat": -32.4419,
   "lon": 118.8983
  },
  {
   "id": "ASN00010579",
   "name": "KATANNING COMPARISON",
   "lat": -33.6886,
   "lon": 117.5553
  },
  {
   "id": "ASN00010582",
   "name": "KOJONUP",
   "lat": -33.83,
   "lon": 117.159
  },
  {
   "id": "ASN00010592",
   "name": "LAKE GRACE COMPARISON",
   "lat": -33.1006,
   "lon": 118.4625
  },
  {
   "id": "ASN00010612",
   "name": "NAREMBEEN",
   "lat": -32.0656,
   "lon": 118.3956
  },
  {
   "id": "ASN00010614",
   "name": "NARROGIN",
   "lat": -32.9342,
   "lon": 117.1797
  },
  {
   "id": "ASN00010622",
   "name": "ONGERUP",
   "lat": -33.9644,
   "lon": 118.4889
  },
  {
   "id": "ASN00010626",
   "name": "PINGELLY",
   "lat": -32.5336,
   "lon": 117.0831
  },
  {
   "id": "ASN00010633",
   "name": "RAVENSTHORPE",
   "lat": -33.5803,
   "lon": 120.0458
  },
  {
   "id": "ASN00010647",
   "name": "WAGIN",
   "lat": -33.3075,
   "lon": 117.3403
  },
  {
   "id": "ASN00010648",
   "name": "WANDERING COMPARISON",
   "lat": -32.6814,
   "lon": 116.6756
  },
  {
   "id": "ASN00010692",
   "name": "NEWDEGATE RESEARCH STATION",
   "lat": -33.1131,
   "lon": 118.84
  },
  {
   "id": "ASN00010905",
   "name": "JACUP",
   "lat": -33.8878,
   "lon": 119.1092
  },
  {
   "id": "ASN00010911",
   "name": "LAKE GRACE",
   "lat": -33.1006,
   "lon": 118.4647
  },
  {
   "id": "ASN00010916",
   "name": "KATANNING",
   "lat": -33.6856,
   "lon": 117.6064
  },
  {
   "id": "ASN00010917",
   "name": "WANDERING",
   "lat": -32.6722,
   "lon": 116.6706
  },
  {
   "id": "ASN00011003",
   "name": "EUCLA",
   "lat": -31.6797,
   "lon": 128.8792
  },
  {
   "id": "ASN00011004",
   "name": "FORREST AERO",
   "lat": -30.8389,
   "lon": 128.1139
  },
  {
   "id": "ASN00011013",
   "name": "RAWLINNA",
   "lat": -31.0119,
   "lon": 125.3294
  },
  {
   "id": "ASN00011017",
   "name": "BALLADONIA",
   "lat": -32.4569,
   "lon": 123.8653
  },
  {
   "id": "ASN00011019",
   "name": "EYRE",
   "lat": -32.2464,
   "lon": 126.3008
  },
  {
   "id": "ASN00011045",
   "name": "BALGAIR",
   "lat": -31.09,
   "lon": 125.6589
  },
  {
   "id": "ASN00011052",
   "name": "FORREST",
   "lat": -30.8453,
   "lon": 128.1092
  },
  {
   "id": "ASN00011053",
   "name": "RED ROCKS POINT",
   "lat": -32.2028,
   "lon": 127.5297
  },
  {
   "id": "ASN00012008",
   "name": "BOOYLGOO SPRING",
   "lat": -27.7556,
   "lon": 119.9078
  },
  {
   "id": "ASN00012009",
   "name": "NORSEMAN AERO",
   "lat": -32.2147,
   "lon": 121.7547
  },
  {
   "id": "ASN00012022",
   "name": "CASHMERE DOWNS",
   "lat": -28.97,
   "lon": 119.5686
  },
  {
   "id": "ASN00012038",
   "name": "KALGOORLIE BOULDER AIRPORT",
   "lat": -30.7847,
   "lon": 121.4533
  },
  {
   "id": "ASN00012039",
   "name": "KALGOORLIE POST OFFICE",
   "lat": -30.75,
   "lon": 121.4667
  },
  {
   "id": "ASN00012044",
   "name": "MUNGLINUP WEST",
   "lat": -33.5547,
   "lon": 120.6997
  },
  {
   "id": "ASN00012045",
   "name": "LAVERTON",
   "lat": -28.6306,
   "lon": 122.4072
  },
  {
   "id": "ASN00012046",
   "name": "LEONORA",
   "lat": -28.8836,
   "lon": 121.3303
  },
  {
   "id": "ASN00012052",
   "name": "MENZIES",
   "lat": -29.6939,
   "lon": 121.0297
  },
  {
   "id": "ASN00012065",
   "name": "NORSEMAN",
   "lat": -32.1981,
   "lon": 121.7794
  },
  {
   "id": "ASN00012071",
   "name": "SALMON GUMS RESSTN",
   "lat": -32.9869,
   "lon": 121.6239
  },
  {
   "id": "ASN00012074",
   "name": "SOUTHERN CROSS",
   "lat": -31.2319,
   "lon": 119.3281
  },
  {
   "id": "ASN00012090",
   "name": "YEELIRRIE",
   "lat": -27.2842,
   "lon": 120.0931
  },
  {
   "id": "ASN00012219",
   "name": "YAMARNA",
   "lat": -28.1664,
   "lon": 123.6556
  },
  {
   "id": "ASN00012239",
   "name": "BULGA DOWNS",
   "lat": -28.4967,
   "lon": 119.7436
  },
  {
   "id": "ASN00012241",
   "name": "LEONORA AERO",
   "lat": -28.8789,
   "lon": 121.3186
  },
  {
   "id": "ASN00012242",
   "name": "DIEMALS",
   "lat": -29.6694,
   "lon": 119.3031
  },
  {
   "id": "ASN00012281",
   "name": "MUNGLINUP MELALEUCA",
   "lat": -33.5969,
   "lon": 120.7578
  },
  {
   "id": "ASN00012305",
   "name": "LAVERTON AERO",
   "lat": -28.6133,
   "lon": 122.4236
  },
  {
   "id": "ASN00012314",
   "name": "LEINSTER AERO",
   "lat": -27.8386,
   "lon": 120.7031
  },
  {
   "id": "ASN00012320",
   "name": "SOUTHERN CROSS AIRFIELD",
   "lat": -31.2353,
   "lon": 119.3564
  },
  {
   "id": "ASN00013007",
   "name": "BALGO HILLS",
   "lat": -20.1417,
   "lon": 127.9867
  },
  {
   "id": "ASN00013011",
   "name": "WARBURTON AIRFIELD",
   "lat": -26.1317,
   "lon": 126.5839
  },
  {
   "id": "ASN00013012",
   "name": "WILUNA",
   "lat": -26.5914,
   "lon": 120.225
  },
  {
   "id": "ASN00013015",
   "name": "CARNEGIE",
   "lat": -25.7964,
   "lon": 122.9753
  },
  {
   "id": "ASN00013017",
   "name": "GILES METEOROLOGICAL OFFICE",
   "lat": -25.0341,
   "lon": 128.301
  },
  {
   "id": "ASN00013030",
   "name": "TELFER AERO",
   "lat": -21.7125,
   "lon": 122.2281
  },
  {
   "id": "ASN00014008",
   "name": "CAPE DON",
   "lat": -11.3167,
   "lon": 131.7667
  },
  {
   "id": "ASN00014011",
   "name": "MINJILANG",
   "lat": -11.1456,
   "lon": 132.5688
  },
  {
   "id": "ASN00014015",
   "name": "DARWIN AIRPORT",
   "lat": -12.4239,
   "lon": 130.8925
  },
  {
   "id": "ASN00014016",
   "name": "DARWIN POST OFFICE",
   "lat": -12.4,
   "lon": 130.8
  },
  {
   "id": "ASN00014040",
   "name": "DARWIN AIRPORT COMPARISON",
   "lat": -12.4227,
   "lon": 130.8844
  },
  {
   "id": "ASN00014041",
   "name": "MIDDLE POINT AWS",
   "lat": -12.605,
   "lon": 131.2988
  },
  {
   "id": "ASN00014042",
   "name": "OENPELLI",
   "lat": -12.3263,
   "lon": 133.0581
  },
  {
   "id": "ASN00014090",
   "name": "MIDDLE POINT",
   "lat": -12.5781,
   "lon": 131.3145
  },
  {
   "id": "ASN00014142",
   "name": "PIRLANGIMPI",
   "lat": -11.4022,
   "lon": 130.4217
  },
  {
   "id": "ASN00014153",
   "name": "BLACK POINT",
   "lat": -11.1538,
   "lon": 132.143
  },
  {
   "id": "ASN00014198",
   "name": "JABIRU AIRPORT",
   "lat": -12.6594,
   "lon": 132.8939
  },
  {
   "id": "ASN00014253",
   "name": "CHANNEL POINT",
   "lat": -13.1672,
   "lon": 130.1225
  },
  {
   "id": "ASN00014254",
   "name": "POINT STUART AWS",
   "lat": -12.2435,
   "lon": 131.8785
  },
  {
   "id": "ASN00014272",
   "name": "BATCHELOR AERO",
   "lat": -13.0545,
   "lon": 131.0252
  },
  {
   "id": "ASN00014274",
   "name": "MCCLUER ISLAND",
   "lat": -11.0468,
   "lon": 132.9791
  },
  {
   "id": "ASN00014277",
   "name": "DUM IN MIRRIE AWS",
   "lat": -12.635,
   "lon": 130.3725
  },
  {
   "id": "ASN00014400",
   "name": "MANINGRIDA",
   "lat": -12.0482,
   "lon": 134.2263
  },
  {
   "id": "ASN00014401",
   "name": "WARRUWI",
   "lat": -11.6502,
   "lon": 133.3796
  },
  {
   "id": "ASN00014402",
   "name": "MILINGIMBI",
   "lat": -12.1239,
   "lon": 134.9078
  },
  {
   "id": "ASN00014404",
   "name": "MILINGIMBI AWS",
   "lat": -12.0931,
   "lon": 134.8919
  },
  {
   "id": "ASN00014405",
   "name": "MANINGRIDA AERO",
   "lat": -12.0569,
   "lon": 134.2339
  },
  {
   "id": "ASN00014502",
   "name": "YIRRKALA MISSION",
   "lat": -12.25,
   "lon": 136.8833
  },
  {
   "id": "ASN00014504",
   "name": "GALIWINKU",
   "lat": -12.028,
   "lon": 135.5648
  },
  {
   "id": "ASN00014506",
   "name": "ANGURUGU",
   "lat": -13.9833,
   "lon": 136.4333
  },
  {
   "id": "ASN00014507",
   "name": "ALYANGULA POLICE",
   "lat": -13.8483,
   "lon": 136.4198
  },
  {
   "id": "ASN00014508",
   "name": "GOVE AIRPORT",
   "lat": -12.2741,
   "lon": 136.8203
  },
  {
   "id": "ASN00014512",
   "name": "NHULUNBUY DTW",
   "lat": -12.1939,
   "lon": 136.7637
  },
  {
   "id": "ASN00014517",
   "name": "NGAYAWILI",
   "lat": -11.9971,
   "lon": 135.5726
  },
  {
   "id": "ASN00014518",
   "name": "GROOTE EYLANDT AIRPORT AWS",
   "lat": -13.9747,
   "lon": 136.4631
  },
  {
   "id": "ASN00014612",
   "name": "LARRIMAH",
   "lat": -15.5748,
   "lon": 133.2138
  },
  {
   "id": "ASN00014618",
   "name": "DALY WATERS",
   "lat": -16.253,
   "lon": 133.37
  },
  {
   "id": "ASN00014626",
   "name": "DALY WATERS AWS",
   "lat": -16.2636,
   "lon": 133.3782
  },
  {
   "id": "ASN00014627",
   "name": "BULMAN AWS",
   "lat": -13.6714,
   "lon": 134.3414
  },
  {
   "id": "ASN00014633",
   "name": "ROPER BAR STORE",
   "lat": -14.7356,
   "lon": 134.5291
  },
  {
   "id": "ASN00014703",
   "name": "CENTRE ISLAND",
   "lat": -15.7426,
   "lon": 136.8192
  },
  {
   "id": "ASN00014704",
   "name": "MCARTHUR RIVER MINE",
   "lat": -16.4423,
   "lon": 136.076
  },
  {
   "id": "ASN00014707",
   "name": "WOLLOGORANG",
   "lat": -17.2122,
   "lon": 137.9462
  },
  {
   "id": "ASN00014723",
   "name": "BORROLOOLA",
   "lat": -16.0757,
   "lon": 136.3041
  },
  {
   "id": "ASN00014825",
   "name": "VICTORIA RIVER DOWNS",
   "lat": -16.403,
   "lon": 131.0145
  },
  {
   "id": "ASN00014829",
   "name": "LAJAMANU",
   "lat": -18.3325,
   "lon": 130.6358
  },
  {
   "id": "ASN00014840",
   "name": "WAVE HILL",
   "lat": -17.3871,
   "lon": 131.1166
  },
  {
   "id": "ASN00014847",
   "name": "KIDMAN SPRINGS",
   "lat": -16.1176,
   "lon": 130.9558
  },
  {
   "id": "ASN00014850",
   "name": "TIMBER CREEK",
   "lat": -15.6614,
   "lon": 130.4808
  },
  {
   "id": "ASN00014901",
   "name": "DOUGLAS RIVER",
   "lat": -13.8345,
   "lon": 131.1872
  },
  {
   "id": "ASN00014902",
   "name": "KATHERINE COUNCIL",
   "lat": -14.4589,
   "lon": 132.2572
  },
  {
   "id": "ASN00014903",
   "name": "KATHERINE AVIATION MUSEUM",
   "lat": -14.4437,
   "lon": 132.2737
  },
  {
   "id": "ASN00014904",
   "name": "KATHERINE EXP FARM",
   "lat": -14.4833,
   "lon": 132.25
  },
  {
   "id": "ASN00014905",
   "name": "PORT KEATS POLICE",
   "lat": -14.2403,
   "lon": 129.5215
  },
  {
   "id": "ASN00014909",
   "name": "CENTRAL ARNHEM PLATEAU",
   "lat": -13.3275,
   "lon": 133.0861
  },
  {
   "id": "ASN00014932",
   "name": "TINDAL RAAF",
   "lat": -14.5229,
   "lon": 132.3826
  },
  {
   "id": "ASN00014938",
   "name": "MANGO FARM",
   "lat": -13.7379,
   "lon": 130.6834
  },
  {
   "id": "ASN00014948",
   "name": "PORT KEATS AERO",
   "lat": -14.2495,
   "lon": 129.5282
  },
  {
   "id": "ASN00014949",
   "name": "DELAMERE WEAPONS RANGE",
   "lat": -15.7442,
   "lon": 131.9182
  },
  {
   "id": "ASN00014954",
   "name": "BRADSHAW",
   "lat": -14.9408,
   "lon": 130.8092
  },
  {
   "id": "ASN00015034",
   "name": "WONARAH",
   "lat": -19.8983,
   "lon": 136.3358
  },
  {
   "id": "ASN00015085",
   "name": "BRUNETTE DOWNS",
   "lat": -18.637,
   "lon": 135.945
  },
  {
   "id": "ASN00015087",
   "name": "TENNANT CREEK POST OFFICE",
   "lat": -19.6475,
   "lon": 134.1896
  },
  {
   "id": "ASN00015089",
   "name": "NEWCASTLE WATERS POST OFFICE",
   "lat": -17.3833,
   "lon": 133.4
  },
  {
   "id": "ASN00015131",
   "name": "ELLIOTT",
   "lat": -17.5521,
   "lon": 133.5407
  },
  {
   "id": "ASN00015135",
   "name": "TENNANT CREEK AIRPORT",
   "lat": -19.6423,
   "lon": 134.1833
  },
  {
   "id": "ASN00015502",
   "name": "ALI CURUNG",
   "lat": -21.0025,
   "lon": 134.4029
  },
  {
   "id": "ASN00015511",
   "name": "CURTIN SPRINGS",
   "lat": -25.3139,
   "lon": 131.7571
  },
  {
   "id": "ASN00015525",
   "name": "BARROW CREEK",
   "lat": -21.5317,
   "lon": 133.8901
  },
  {
   "id": "ASN00015526",
   "name": "FINKE POST OFFICE",
   "lat": -25.5833,
   "lon": 134.5667
  },
  {
   "id": "ASN00015527",
   "name": "AYERS ROCK",
   "lat": -25.34,
   "lon": 131.0583
  },
  {
   "id": "ASN00015528",
   "name": "YUENDUMU",
   "lat": -22.2562,
   "lon": 131.8017
  },
  {
   "id": "ASN00015540",
   "name": "ALICE SPRINGS POST OFFICE",
   "lat": -23.71,
   "lon": 133.8683
  },
  {
   "id": "ASN00015546",
   "name": "RINGWOOD",
   "lat": -23.8289,
   "lon": 134.9555
  },
  {
   "id": "ASN00015548",
   "name": "RABBIT FLAT",
   "lat": -20.1883,
   "lon": 130.0161
  },
  {
   "id": "ASN00015590",
   "name": "ALICE SPRINGS AIRPORT",
   "lat": -23.7951,
   "lon": 133.889
  },
  {
   "id": "ASN00015594",
   "name": "ARLTUNGA",
   "lat": -23.4564,
   "lon": 134.6849
  },
  {
   "id": "ASN00015602",
   "name": "JERVOIS",
   "lat": -22.9494,
   "lon": 136.1442
  },
  {
   "id": "ASN00015603",
   "name": "KULGERA",
   "lat": -25.8428,
   "lon": 133.3027
  },
  {
   "id": "ASN00015635",
   "name": "YULARA AERO",
   "lat": -25.1896,
   "lon": 130.9737
  },
  {
   "id": "ASN00015643",
   "name": "TERRITORY GRAPE FARM",
   "lat": -22.4518,
   "lon": 133.6377
  },
  {
   "id": "ASN00015652",
   "name": "WATARRKA",
   "lat": -24.2914,
   "lon": 131.5488
  },
  {
   "id": "ASN00015664",
   "name": "WALUNGURRU",
   "lat": -23.27,
   "lon": 129.38
  },
  {
   "id": "ASN00015666",
   "name": "RABBIT FLAT",
   "lat": -20.1824,
   "lon": 130.0148
  },
  {
   "id": "ASN00016001",
   "name": "WOOMERA AERODROME",
   "lat": -31.1558,
   "lon": 136.8054
  },
  {
   "id": "ASN00016007",
   "name": "COOBER PEDY",
   "lat": -29.004,
   "lon": 134.7564
  },
  {
   "id": "ASN00016013",
   "name": "ERNABELLA",
   "lat": -26.2925,
   "lon": 132.1283
  },
  {
   "id": "ASN00016032",
   "name": "NONNING",
   "lat": -32.5226,
   "lon": 136.4926
  },
  {
   "id": "ASN00016044",
   "name": "TARCOOLA",
   "lat": -30.7111,
   "lon": 134.5694
  },
  {
   "id": "ASN00016056",
   "name": "YUDNAPINNA",
   "lat": -32.1232,
   "lon": 137.1505
  },
  {
   "id": "ASN00016065",
   "name": "ANDAMOOKA",
   "lat": -30.449,
   "lon": 137.1692
  },
  {
   "id": "ASN00016085",
   "name": "MARLA POLICE STATION",
   "lat": -27.3002,
   "lon": 133.6201
  },
  {
   "id": "ASN00016090",
   "name": "COOBER PEDY AIRPORT",
   "lat": -29.0347,
   "lon": 134.7222
  },
  {
   "id": "ASN00016096",
   "name": "ROXBY DOWNS OLYMPIC DAM AEROD",
   "lat": -30.4829,
   "lon": 136.8772
  },
  {
   "id": "ASN00016097",
   "name": "ERNABELLA PUKATJA",
   "lat": -26.2635,
   "lon": 132.1771
  },
  {
   "id": "ASN00016098",
   "name": "TARCOOLA AERO",
   "lat": -30.7051,
   "lon": 134.5786
  },
  {
   "id": "ASN00017005",
   "name": "LEIGH CREEK AERO",
   "lat": -30.4667,
   "lon": 138.4075
  },
  {
   "id": "ASN00017024",
   "name": "MARREE FARINA",
   "lat": -30.066,
   "lon": 138.2739
  },
  {
   "id": "ASN00017031",
   "name": "MARREE COMPARISON",
   "lat": -29.6481,
   "lon": 138.0637
  },
  {
   "id": "ASN00017043",
   "name": "OODNADATTA AIRPORT",
   "lat": -27.5553,
   "lon": 135.4456
  },
  {
   "id": "ASN00017096",
   "name": "MOOMBA",
   "lat": -28.1125,
   "lon": 140.2102
  },
  {
   "id": "ASN00017099",
   "name": "ARKAROOLA",
   "lat": -30.311,
   "lon": 139.3357
  },
  {
   "id": "ASN00017110",
   "name": "LEIGH CREEK AIRPORT",
   "lat": -30.5963,
   "lon": 138.4219
  },
  {
   "id": "ASN00017123",
   "name": "MOOMBA AIRPORT",
   "lat": -28.0997,
   "lon": 140.1956
  },
  {
   "id": "ASN00017126",
   "name": "MARREE AERO",
   "lat": -29.6587,
   "lon": 138.0684
  },
  {
   "id": "ASN00018011",
   "name": "CEDUNA POST OFFICE",
   "lat": -32.1267,
   "lon": 133.6725
  },
  {
   "id": "ASN00018012",
   "name": "CEDUNA AMO",
   "lat": -32.1297,
   "lon": 133.6976
  },
  {
   "id": "ASN00018014",
   "name": "CLEVE",
   "lat": -33.7011,
   "lon": 136.4937
  },
  {
   "id": "ASN00018030",
   "name": "FOWLERS BAY",
   "lat": -31.99,
   "lon": 132.4372
  },
  {
   "id": "ASN00018040",
   "name": "KIMBA",
   "lat": -33.1414,
   "lon": 136.4125
  },
  {
   "id": "ASN00018044",
   "name": "KYANCUTTA",
   "lat": -33.1332,
   "lon": 135.5552
  },
  {
   "id": "ASN00018052",
   "name": "MINNIPA AGRICULTURAL CENTRE",
   "lat": -32.8361,
   "lon": 135.15
  },
  {
   "id": "ASN00018069",
   "name": "ELLISTON",
   "lat": -33.6501,
   "lon": 134.888
  },
  {
   "id": "ASN00018070",
   "name": "PORT LINCOLN",
   "lat": -34.7225,
   "lon": 135.8558
  },
  {
   "id": "ASN00018079",
   "name": "STREAKY BAY",
   "lat": -32.7963,
   "lon": 134.2116
  },
  {
   "id": "ASN00018083",
   "name": "WUDINNA AERO",
   "lat": -33.043,
   "lon": 135.4519
  },
  {
   "id": "ASN00018103",
   "name": "WHYALLA NORRIE",
   "lat": -33.0303,
   "lon": 137.5328
  },
  {
   "id": "ASN00018106",
   "name": "NULLARBOR",
   "lat": -31.4492,
   "lon": 130.8976
  },
  {
   "id": "ASN00018110",
   "name": "COOK",
   "lat": -30.6143,
   "lon": 130.4136
  },
  {
   "id": "ASN00018115",
   "name": "NEPTUNE ISLAND",
   "lat": -35.3365,
   "lon": 136.1174
  },
  {
   "id": "ASN00018116",
   "name": "CLEVE AERODROME",
   "lat": -33.7081,
   "lon": 136.5026
  },
  {
   "id": "ASN00018120",
   "name": "WHYALLA AERO",
   "lat": -33.0539,
   "lon": 137.5205
  },
  {
   "id": "ASN00018139",
   "name": "POLDA GUM VIEW",
   "lat": -33.5085,
   "lon": 135.2928
  },
  {
   "id": "ASN00018181",
   "name": "PORT LINCOLN TOD RIVER",
   "lat": -34.4906,
   "lon": 135.8511
  },
  {
   "id": "ASN00018191",
   "name": "COULTA COLES POINT",
   "lat": -34.3749,
   "lon": 135.3741
  },
  {
   "id": "ASN00018192",
   "name": "NORTH SHIELDS PORT LINCOLN AW",
   "lat": -34.5993,
   "lon": 135.8784
  },
  {
   "id": "ASN00018195",
   "name": "MINNIPA DPI",
   "lat": -32.8427,
   "lon": 135.1515
  },
  {
   "id": "ASN00018201",
   "name": "PORT AUGUSTA AERO",
   "lat": -32.5091,
   "lon": 137.7144
  },
  {
   "id": "ASN00019017",
   "name": "HAWKER",
   "lat": -31.8846,
   "lon": 138.435
  },
  {
   "id": "ASN00019036",
   "name": "PORT AUGUSTA POST OFFICE",
   "lat": -32.5,
   "lon": 137.7667
  },
  {
   "id": "ASN00019062",
   "name": "YONGALA",
   "lat": -33.0287,
   "lon": 138.7489
  },
  {
   "id": "ASN00019066",
   "name": "PORT AUGUSTA POWER STATION",
   "lat": -32.528,
   "lon": 137.79
  },
  {
   "id": "ASN00020026",
   "name": "YUNTA",
   "lat": -32.5819,
   "lon": 139.5611
  },
  {
   "id": "ASN00020028",
   "name": "GLUEPOT RESERVE GLUEPOT",
   "lat": -33.7622,
   "lon": 140.1251
  },
  {
   "id": "ASN00020062",
   "name": "YUNTA AIRSTRIP",
   "lat": -32.5707,
   "lon": 139.5645
  },
  {
   "id": "ASN00021014",
   "name": "CLARE POST OFFICE",
   "lat": -33.8364,
   "lon": 138.6125
  },
  {
   "id": "ASN00021020",
   "name": "GEORGETOWN",
   "lat": -33.359,
   "lon": 138.393
  },
  {
   "id": "ASN00021043",
   "name": "PORT PIRIE NYRSTAR COMPARISON",
   "lat": -33.1708,
   "lon": 138.0104
  },
  {
   "id": "ASN00021046",
   "name": "SNOWTOWN",
   "lat": -33.7844,
   "lon": 138.2133
  },
  {
   "id": "ASN00021131",
   "name": "CLARE HIGH SCHOOL",
   "lat": -33.8226,
   "lon": 138.5933
  },
  {
   "id": "ASN00021133",
   "name": "SNOWTOWN RAYVILLE PARK",
   "lat": -33.7676,
   "lon": 138.2182
  },
  {
   "id": "ASN00022006",
   "name": "KADINA",
   "lat": -33.9551,
   "lon": 137.6953
  },
  {
   "id": "ASN00022008",
   "name": "MAITLAND",
   "lat": -34.3745,
   "lon": 137.6733
  },
  {
   "id": "ASN00022015",
   "name": "PRICE",
   "lat": -34.2971,
   "lon": 138.0014
  },
  {
   "id": "ASN00022018",
   "name": "WAROOKA",
   "lat": -34.9906,
   "lon": 137.3995
  },
  {
   "id": "ASN00022029",
   "name": "ALTHORPE ISLAND",
   "lat": -35.3725,
   "lon": 136.8594
  },
  {
   "id": "ASN00022030",
   "name": "TROUBRIDGE SHOAL LIGHTHOUSE",
   "lat": -35.1167,
   "lon": 137.8333
  },
  {
   "id": "ASN00022031",
   "name": "MINLATON AERO",
   "lat": -34.748,
   "lon": 137.5276
  },
  {
   "id": "ASN00022046",
   "name": "EDITHBURGH",
   "lat": -35.1121,
   "lon": 137.7395
  },
  {
   "id": "ASN00022049",
   "name": "STENHOUSE BAY",
   "lat": -35.2795,
   "lon": 136.9392
  },
  {
   "id": "ASN00022050",
   "name": "KADINA AWS",
   "lat": -33.9703,
   "lon": 137.6628
  },
  {
   "id": "ASN00022801",
   "name": "CAPE BORDA COMPARISON",
   "lat": -35.7529,
   "lon": 136.5938
  },
  {
   "id": "ASN00022802",
   "name": "CAPE DE COUEDIC",
   "lat": -36.0667,
   "lon": 136.7
  },
  {
   "id": "ASN00022803",
   "name": "CAPE WILLOUGHBY",
   "lat": -35.8426,
   "lon": 138.1327
  },
  {
   "id": "ASN00022807",
   "name": "KINGSCOTE",
   "lat": -35.6569,
   "lon": 137.6364
  },
  {
   "id": "ASN00022814",
   "name": "PARNDANA EAST RESEARCH STATION",
   "lat": -35.8,
   "lon": 137.3333
  },
  {
   "id": "ASN00022823",
   "name": "CAPE BORDA",
   "lat": -35.7549,
   "lon": 136.5959
  },
  {
   "id": "ASN00022841",
   "name": "KINGSCOTE AERO",
   "lat": -35.7114,
   "lon": 137.5231
  },
  {
   "id": "ASN00023000",
   "name": "ADELAIDE WEST TERRACE",
   "lat": -34.9254,
   "lon": 138.5869
  },
  {
   "id": "ASN00023013",
   "name": "PARAFIELD AIRPORT",
   "lat": -34.7977,
   "lon": 138.6281
  },
  {
   "id": "ASN00023015",
   "name": "PENFIELD WEAPONS RESEARCH",
   "lat": -34.7333,
   "lon": 138.65
  },
  {
   "id": "ASN00023020",
   "name": "ROSEWORTHY AGRIC COLLEGE",
   "lat": -34.5267,
   "lon": 138.6883
  },
  {
   "id": "ASN00023031",
   "name": "ADELAIDE WAITE INSTITUTE",
   "lat": -34.9697,
   "lon": 138.6331
  },
  {
   "id": "ASN00023034",
   "name": "ADELAIDE AIRPORT",
   "lat": -34.9524,
   "lon": 138.5204
  },
  {
   "id": "ASN00023037",
   "name": "ADELAIDE PARAFIELD PLANT INTR",
   "lat": -34.7833,
   "lon": 138.6242
  },
  {
   "id": "ASN00023057",
   "name": "ADELAIDE NORTHFIELD RESEARCH",
   "lat": -34.8533,
   "lon": 138.6517
  },
  {
   "id": "ASN00023083",
   "name": "EDINBURGH RAAF",
   "lat": -34.7111,
   "lon": 138.6222
  },
  {
   "id": "ASN00023090",
   "name": "ADELAIDE KENT TOWN",
   "lat": -34.9211,
   "lon": 138.6216
  },
  {
   "id": "ASN00023122",
   "name": "ROSEWORTHY AWS",
   "lat": -34.5106,
   "lon": 138.6763
  },
  {
   "id": "ASN00023307",
   "name": "KAPUNDA",
   "lat": -34.3412,
   "lon": 138.9155
  },
  {
   "id": "ASN00023321",
   "name": "NURIOOTPA COMPARISON",
   "lat": -34.4767,
   "lon": 139.0047
  },
  {
   "id": "ASN00023343",
   "name": "ROSEDALE TURRETFIELD RESEARCH",
   "lat": -34.5519,
   "lon": 138.8342
  },
  {
   "id": "ASN00023373",
   "name": "NURIOOTPA VITICULTURAL",
   "lat": -34.4761,
   "lon": 139.0056
  },
  {
   "id": "ASN00023703",
   "name": "BELAIR KALYRA",
   "lat": -35.0042,
   "lon": 138.6147
  },
  {
   "id": "ASN00023733",
   "name": "MOUNT BARKER",
   "lat": -35.0639,
   "lon": 138.8509
  },
  {
   "id": "ASN00023745",
   "name": "STIRLING",
   "lat": -35.0333,
   "lon": 138.7167
  },
  {
   "id": "ASN00023747",
   "name": "STRATHALBYN",
   "lat": -35.256,
   "lon": 138.8901
  },
  {
   "id": "ASN00023751",
   "name": "VICTOR HARBOR COMPARISON",
   "lat": -35.555,
   "lon": 138.6217
  },
  {
   "id": "ASN00023763",
   "name": "MOUNT CRAWFORD FOREST HEADQUAR",
   "lat": -34.7122,
   "lon": 138.9469
  },
  {
   "id": "ASN00023785",
   "name": "STIRLING POST OFFICE",
   "lat": -35.0,
   "lon": 138.7167
  },
  {
   "id": "ASN00023801",
   "name": "LENSWOOD RESEARCH CENTRE",
   "lat": -34.9482,
   "lon": 138.8071
  },
  {
   "id": "ASN00023804",
   "name": "VICTOR HARBOR ENCOUNTER BAY",
   "lat": -35.5544,
   "lon": 138.5997
  },
  {
   "id": "ASN00023842",
   "name": "MOUNT LOFTY",
   "lat": -34.9784,
   "lon": 138.7088
  },
  {
   "id": "ASN00023849",
   "name": "GOOLWA HINDMARSH ISLAND MARIN",
   "lat": -35.5147,
   "lon": 138.7989
  },
  {
   "id": "ASN00023875",
   "name": "PARAWA SECOND VALLEY FOREST A",
   "lat": -35.5695,
   "lon": 138.2864
  },
  {
   "id": "ASN00023878",
   "name": "MOUNT CRAWFORD MT CRAWFORD AW",
   "lat": -34.7253,
   "lon": 138.9273
  },
  {
   "id": "ASN00023885",
   "name": "NOARLUNGA",
   "lat": -35.1586,
   "lon": 138.5057
  },
  {
   "id": "ASN00023887",
   "name": "KUITPO FOREST RESERVE",
   "lat": -35.1712,
   "lon": 138.6783
  },
  {
   "id": "ASN00023894",
   "name": "HINDMARSH ISLAND AWS",
   "lat": -35.5194,
   "lon": 138.8177
  },
  {
   "id": "ASN00024002",
   "name": "BERRI IRRIGATION",
   "lat": -34.2833,
   "lon": 140.6
  },
  {
   "id": "ASN00024016",
   "name": "RENMARK",
   "lat": -34.1711,
   "lon": 140.7494
  },
  {
   "id": "ASN00024023",
   "name": "LOXTON RESEARCH CENTRE",
   "lat": -34.4333,
   "lon": 140.6
  },
  {
   "id": "ASN00024024",
   "name": "LOXTON RESEARCH CENTRE",
   "lat": -34.439,
   "lon": 140.5978
  },
  {
   "id": "ASN00024041",
   "name": "WAIKERIE GOLDEN HEIGHTS",
   "lat": -34.1944,
   "lon": 139.9378
  },
  {
   "id": "ASN00024048",
   "name": "RENMARK AERO",
   "lat": -34.1983,
   "lon": 140.6766
  },
  {
   "id": "ASN00024511",
   "name": "EUDUNDA",
   "lat": -34.1754,
   "lon": 139.0847
  },
  {
   "id": "ASN00024518",
   "name": "MENINGIE",
   "lat": -35.6902,
   "lon": 139.3375
  },
  {
   "id": "ASN00024521",
   "name": "MURRAY BRIDGE COMPARISON",
   "lat": -35.1234,
   "lon": 139.2592
  },
  {
   "id": "ASN00024536",
   "name": "TAILEM BEND",
   "lat": -35.2546,
   "lon": 139.4542
  },
  {
   "id": "ASN00024580",
   "name": "STRATHALBYN RACECOURSE",
   "lat": -35.2836,
   "lon": 138.8934
  },
  {
   "id": "ASN00024584",
   "name": "MURRAY BRIDGE PALLAMANA AEROD",
   "lat": -35.065,
   "lon": 139.2273
  },
  {
   "id": "ASN00025006",
   "name": "KAROONDA",
   "lat": -35.09,
   "lon": 139.8972
  },
  {
   "id": "ASN00025050",
   "name": "CALIPH",
   "lat": -34.6345,
   "lon": 140.2432
  },
  {
   "id": "ASN00025507",
   "name": "KEITH",
   "lat": -36.098,
   "lon": 140.3556
  },
  {
   "id": "ASN00025509",
   "name": "LAMEROO COMPARISON",
   "lat": -35.3288,
   "lon": 140.5175
  },
  {
   "id": "ASN00025557",
   "name": "KEITH MUNKORA",
   "lat": -36.1058,
   "lon": 140.3273
  },
  {
   "id": "ASN00025562",
   "name": "LAMEROO AUSTIN PLAINS",
   "lat": -35.3778,
   "lon": 140.5378
  },
  {
   "id": "ASN00026005",
   "name": "CAPE NORTHUMBERLAND",
   "lat": -38.0573,
   "lon": 140.6725
  },
  {
   "id": "ASN00026013",
   "name": "KYBYBOLITE RESEARCH CENTRE",
   "lat": -36.8803,
   "lon": 140.9286
  },
  {
   "id": "ASN00026016",
   "name": "LUCINDALE POST OFFICE",
   "lat": -36.9731,
   "lon": 140.3664
  },
  {
   "id": "ASN00026019",
   "name": "MOUNT BURR FOREST RESERVE",
   "lat": -37.5575,
   "lon": 140.4197
  },
  {
   "id": "ASN00026020",
   "name": "MOUNT GAMBIER POST OFFICE",
   "lat": -37.8333,
   "lon": 140.7833
  },
  {
   "id": "ASN00026021",
   "name": "MOUNT GAMBIER AERO",
   "lat": -37.7473,
   "lon": 140.7739
  },
  {
   "id": "ASN00026023",
   "name": "NARACOORTE",
   "lat": -36.9564,
   "lon": 140.7402
  },
  {
   "id": "ASN00026026",
   "name": "ROBE COMPARISON",
   "lat": -37.1628,
   "lon": 139.756
  },
  {
   "id": "ASN00026045",
   "name": "COONAWARRA",
   "lat": -37.3,
   "lon": 140.8333
  },
  {
   "id": "ASN00026089",
   "name": "PADTHAWAY",
   "lat": -36.5958,
   "lon": 140.4864
  },
  {
   "id": "ASN00026091",
   "name": "COONAWARRA",
   "lat": -37.2906,
   "lon": 140.8254
  },
  {
   "id": "ASN00026095",
   "name": "CAPE JAFFA THE LIMESTONE",
   "lat": -36.9655,
   "lon": 139.7164
  },
  {
   "id": "ASN00026099",
   "name": "NARACOORTE AERODROME",
   "lat": -36.9813,
   "lon": 140.727
  },
  {
   "id": "ASN00026100",
   "name": "PADTHAWAY SOUTH",
   "lat": -36.6539,
   "lon": 140.5212
  },
  {
   "id": "ASN00026105",
   "name": "ROBE AIRFIELD",
   "lat": -37.1776,
   "lon": 139.8054
  },
  {
   "id": "ASN00027005",
   "name": "COEN POST OFFICE",
   "lat": -13.9447,
   "lon": 143.2006
  },
  {
   "id": "ASN00027006",
   "name": "COEN AIRPORT EVAP",
   "lat": -13.7642,
   "lon": 143.1178
  },
  {
   "id": "ASN00027015",
   "name": "MORETON TELEGRAPH STATION",
   "lat": -12.4536,
   "lon": 142.6389
  },
  {
   "id": "ASN00027021",
   "name": "THURSDAY ISLAND TOWNSHIP",
   "lat": -10.5831,
   "lon": 142.2203
  },
  {
   "id": "ASN00027022",
   "name": "THURSDAY ISLAND MO",
   "lat": -10.5853,
   "lon": 142.21
  },
  {
   "id": "ASN00027042",
   "name": "WEIPA EASTERN AVE",
   "lat": -12.6267,
   "lon": 141.8836
  },
  {
   "id": "ASN00027045",
   "name": "WEIPA AERO",
   "lat": -12.6778,
   "lon": 141.9208
  },
  {
   "id": "ASN00027054",
   "name": "COCONUT ISLAND",
   "lat": -10.0511,
   "lon": 143.0686
  },
  {
   "id": "ASN00027058",
   "name": "HORN ISLAND",
   "lat": -10.5844,
   "lon": 142.29
  },
  {
   "id": "ASN00027073",
   "name": "COEN AIRPORT",
   "lat": -13.7606,
   "lon": 143.1183
  },
  {
   "id": "ASN00027075",
   "name": "SCHERGER RAAF",
   "lat": -12.6167,
   "lon": 142.0869
  },
  {
   "id": "ASN00028004",
   "name": "PALMERVILLE",
   "lat": -16.0008,
   "lon": 144.0758
  },
  {
   "id": "ASN00028007",
   "name": "MUSGRAVE",
   "lat": -14.7803,
   "lon": 143.5036
  },
  {
   "id": "ASN00028008",
   "name": "LOCKHART RIVER AIRPORT",
   "lat": -12.785,
   "lon": 143.3047
  },
  {
   "id": "ASN00029004",
   "name": "BURKETOWN POST OFFICE",
   "lat": -17.7425,
   "lon": 139.5475
  },
  {
   "id": "ASN00029008",
   "name": "CLONCURRY MCILLWRAITH ST",
   "lat": -20.7089,
   "lon": 140.5192
  },
  {
   "id": "ASN00029009",
   "name": "CLONCURRY AERO",
   "lat": -20.6717,
   "lon": 140.5083
  },
  {
   "id": "ASN00029012",
   "name": "CROYDON TOWNSHIP",
   "lat": -18.2044,
   "lon": 142.2447
  },
  {
   "id": "ASN00029025",
   "name": "JULIA CREEK POST OFFICE",
   "lat": -20.6569,
   "lon": 141.7458
  },
  {
   "id": "ASN00029028",
   "name": "KARUMBA AIRPORT",
   "lat": -17.4561,
   "lon": 140.8319
  },
  {
   "id": "ASN00029038",
   "name": "KOWANYAMA AIRPORT",
   "lat": -15.4818,
   "lon": 141.7483
  },
  {
   "id": "ASN00029039",
   "name": "MORNINGTON ISLAND",
   "lat": -16.664,
   "lon": 139.1837
  },
  {
   "id": "ASN00029041",
   "name": "NORMANTON POST OFFICE",
   "lat": -17.6706,
   "lon": 141.0672
  },
  {
   "id": "ASN00029058",
   "name": "JULIA CREEK AIRPORT",
   "lat": -20.6672,
   "lon": 141.7214
  },
  {
   "id": "ASN00029063",
   "name": "NORMANTON AIRPORT",
   "lat": -17.6872,
   "lon": 141.0733
  },
  {
   "id": "ASN00029077",
   "name": "BURKETOWN AIRPORT",
   "lat": -17.7483,
   "lon": 139.5356
  },
  {
   "id": "ASN00029090",
   "name": "TOORAK RESEARCH STATION",
   "lat": -21.0344,
   "lon": 141.8008
  },
  {
   "id": "ASN00029125",
   "name": "MOUNT ISA POST OFFICE",
   "lat": -20.7333,
   "lon": 139.4833
  },
  {
   "id": "ASN00029126",
   "name": "MOUNT ISA MINE",
   "lat": -20.7361,
   "lon": 139.4817
  },
  {
   "id": "ASN00029127",
   "name": "MOUNT ISA AERO",
   "lat": -20.6778,
   "lon": 139.4875
  },
  {
   "id": "ASN00029139",
   "name": "SWEERS ISLAND",
   "lat": -17.1142,
   "lon": 139.5981
  },
  {
   "id": "ASN00029141",
   "name": "CLONCURRY AIRPORT",
   "lat": -20.6664,
   "lon": 140.505
  },
  {
   "id": "ASN00029167",
   "name": "CENTURY MINE",
   "lat": -18.7569,
   "lon": 138.7056
  },
  {
   "id": "ASN00030018",
   "name": "GEORGETOWN POST OFFICE",
   "lat": -18.2922,
   "lon": 143.5483
  },
  {
   "id": "ASN00030022",
   "name": "HUGHENDEN AIRPORT",
   "lat": -20.8192,
   "lon": 144.2333
  },
  {
   "id": "ASN00030024",
   "name": "HUGHENDEN POST OFFICE",
   "lat": -20.8447,
   "lon": 144.1986
  },
  {
   "id": "ASN00030036",
   "name": "MOUNT SURPRISE TOWNSHIP",
   "lat": -18.1472,
   "lon": 144.3183
  },
  {
   "id": "ASN00030045",
   "name": "RICHMOND POST OFFICE",
   "lat": -20.7289,
   "lon": 143.1425
  },
  {
   "id": "ASN00030124",
   "name": "GEORGETOWN AIRPORT",
   "lat": -18.3039,
   "lon": 143.5306
  },
  {
   "id": "ASN00030161",
   "name": "RICHMOND AIRPORT",
   "lat": -20.7017,
   "lon": 143.1167
  },
  {
   "id": "ASN00031010",
   "name": "CAIRNS POST OFFICE",
   "lat": -16.9333,
   "lon": 145.7833
  },
  {
   "id": "ASN00031011",
   "name": "CAIRNS AERO",
   "lat": -16.8736,
   "lon": 145.7458
  },
  {
   "id": "ASN00031016",
   "name": "COOKTOWN POST OFFICE",
   "lat": -15.4633,
   "lon": 145.25
  },
  {
   "id": "ASN00031017",
   "name": "COOKTOWN MISSION STRIP",
   "lat": -15.4486,
   "lon": 145.1861
  },
  {
   "id": "ASN00031029",
   "name": "HERBERTON WHITE ST",
   "lat": -17.5851,
   "lon": 145.3869
  },
  {
   "id": "ASN00031034",
   "name": "KAIRI RESEARCH STATION",
   "lat": -17.215,
   "lon": 145.5656
  },
  {
   "id": "ASN00031037",
   "name": "LOW ISLES LIGHTHOUSE",
   "lat": -16.3842,
   "lon": 145.5592
  },
  {
   "id": "ASN00031052",
   "name": "PORT DOUGLASWARNER ST",
   "lat": -16.484,
   "lon": 145.4643
  },
  {
   "id": "ASN00031066",
   "name": "MAREEBA QWRC",
   "lat": -16.995,
   "lon": 145.4253
  },
  {
   "id": "ASN00031083",
   "name": "KOOMBOOLOOMBA DAM",
   "lat": -17.84,
   "lon": 145.5956
  },
  {
   "id": "ASN00031084",
   "name": "FITZROY ISLAND LIGHTHOUSE",
   "lat": -16.9267,
   "lon": 146.0033
  },
  {
   "id": "ASN00031108",
   "name": "WALKAMIN RESEARCH STATION",
   "lat": -17.1347,
   "lon": 145.4281
  },
  {
   "id": "ASN00031192",
   "name": "GREEN ISLAND",
   "lat": -16.7614,
   "lon": 145.9719
  },
  {
   "id": "ASN00031209",
   "name": "COOKTOWN AIRPORT",
   "lat": -15.4461,
   "lon": 145.1861
  },
  {
   "id": "ASN00031210",
   "name": "MAREEBA AIRPORT",
   "lat": -17.0672,
   "lon": 145.4283
  },
  {
   "id": "ASN00031213",
   "name": "CAPE FLATTERY",
   "lat": -14.9672,
   "lon": 145.3106
  },
  {
   "id": "ASN00032004",
   "name": "CARDWELL MARINE PDE",
   "lat": -18.2553,
   "lon": 146.0197
  },
  {
   "id": "ASN00032005",
   "name": "CAPE CLEVELAND LIGHTHOUSE",
   "lat": -19.1833,
   "lon": 147.0167
  },
  {
   "id": "ASN00032025",
   "name": "INNISFAIL",
   "lat": -17.5249,
   "lon": 146.0345
  },
  {
   "id": "ASN00032037",
   "name": "SOUTH JOHNSTONE EXP STN",
   "lat": -17.6053,
   "lon": 145.9972
  },
  {
   "id": "ASN00032040",
   "name": "TOWNSVILLE AERO",
   "lat": -19.2483,
   "lon": 146.7661
  },
  {
   "id": "ASN00032061",
   "name": "BOTTOM OF PIN GIN HILL",
   "lat": -17.5333,
   "lon": 145.9667
  },
  {
   "id": "ASN00032078",
   "name": "INGHAM COMPOSITE",
   "lat": -18.6494,
   "lon": 146.1769
  },
  {
   "id": "ASN00032141",
   "name": "LUCINDA POINT",
   "lat": -18.5203,
   "lon": 146.3861
  },
  {
   "id": "ASN00033001",
   "name": "BURDEKIN SHIRE COUNCIL",
   "lat": -19.5775,
   "lon": 147.4075
  },
  {
   "id": "ASN00033002",
   "name": "AYR DPI RESEARCH STN",
   "lat": -19.6169,
   "lon": 147.3758
  },
  {
   "id": "ASN00033007",
   "name": "BOWEN POST OFFICE",
   "lat": -20.0167,
   "lon": 148.25
  },
  {
   "id": "ASN00033013",
   "name": "COLLINSVILLE POST OFFICE",
   "lat": -20.5534,
   "lon": 147.8464
  },
  {
   "id": "ASN00033045",
   "name": "MACKAY AERO",
   "lat": -21.1706,
   "lon": 149.1794
  },
  {
   "id": "ASN00033046",
   "name": "MACKAY POST OFFICE",
   "lat": -21.15,
   "lon": 149.1833
  },
  {
   "id": "ASN00033047",
   "name": "TE KOWAI EXP STN",
   "lat": -21.1642,
   "lon": 149.1192
  },
  {
   "id": "ASN00033058",
   "name": "PINE ISLET LIGHTHOUSE",
   "lat": -21.6667,
   "lon": 150.2167
  },
  {
   "id": "ASN00033065",
   "name": "ST LAWRENCE POST OFFICE",
   "lat": -22.3458,
   "lon": 149.5356
  },
  {
   "id": "ASN00033077",
   "name": "PACIFIC HEIGHTS",
   "lat": -23.0967,
   "lon": 150.7342
  },
  {
   "id": "ASN00033090",
   "name": "MILLAROO DPI",
   "lat": -20.0464,
   "lon": 147.2739
  },
  {
   "id": "ASN00033106",
   "name": "HAMILTON ISLAND AIRPORT",
   "lat": -20.3658,
   "lon": 148.9536
  },
  {
   "id": "ASN00033119",
   "name": "MACKAY MO",
   "lat": -21.1172,
   "lon": 149.2169
  },
  {
   "id": "ASN00033195",
   "name": "WILLIAMSON",
   "lat": -22.4703,
   "lon": 150.1786
  },
  {
   "id": "ASN00033210",
   "name": "ST LAWRENCE",
   "lat": -22.3472,
   "lon": 149.5242
  },
  {
   "id": "ASN00033247",
   "name": "PROSERPINE AIRPORT",
   "lat": -20.4925,
   "lon": 148.555
  },
  {
   "id": "ASN00033255",
   "name": "HAMILTON ISLAND AIRPORT",
   "lat": -20.3531,
   "lon": 148.9508
  },
  {
   "id": "ASN00033257",
   "name": "BOWEN AIRPORT",
   "lat": -20.0151,
   "lon": 148.2152
  },
  {
   "id": "ASN00033294",
   "name": "YEPPOON THE ESPLANADE",
   "lat": -23.1364,
   "lon": 150.7506
  },
  {
   "id": "ASN00033295",
   "name": "ALVA BEACH",
   "lat": -19.4569,
   "lon": 147.4833
  },
  {
   "id": "ASN00033307",
   "name": "WOOLSHED",
   "lat": -19.4167,
   "lon": 146.5364
  },
  {
   "id": "ASN00033308",
   "name": "SAMUEL HILL AERO",
   "lat": -22.7433,
   "lon": 150.6578
  },
  {
   "id": "ASN00034002",
   "name": "CHARTERS TOWERS POST OFFICE",
   "lat": -20.0781,
   "lon": 146.2614
  },
  {
   "id": "ASN00034038",
   "name": "MORANBAH WATER TREATMENT PLANT",
   "lat": -21.9947,
   "lon": 148.0308
  },
  {
   "id": "ASN00034084",
   "name": "CHARTERS TOWERS AIRPORT",
   "lat": -20.0464,
   "lon": 146.2708
  },
  {
   "id": "ASN00035019",
   "name": "CLERMONT SIRIUS ST",
   "lat": -22.8239,
   "lon": 147.6425
  },
  {
   "id": "ASN00035027",
   "name": "EMERALD POST OFFICE",
   "lat": -23.5267,
   "lon": 148.1617
  },
  {
   "id": "ASN00035059",
   "name": "ROLLESTON",
   "lat": -24.4619,
   "lon": 148.6261
  },
  {
   "id": "ASN00035065",
   "name": "SPRINGSURE COMET ST",
   "lat": -24.123,
   "lon": 148.0856
  },
  {
   "id": "ASN00035069",
   "name": "TAMBO POST OFFICE",
   "lat": -24.8819,
   "lon": 146.2564
  },
  {
   "id": "ASN00035070",
   "name": "TAROOM POST OFFICE",
   "lat": -25.6408,
   "lon": 149.7958
  },
  {
   "id": "ASN00035149",
   "name": "BRIGALOW RESEARCH STN",
   "lat": -24.8353,
   "lon": 149.8003
  },
  {
   "id": "ASN00035264",
   "name": "EMERALD AIRPORT",
   "lat": -23.5694,
   "lon": 148.1756
  },
  {
   "id": "ASN00036007",
   "name": "BARCALDINE POST OFFICE",
   "lat": -23.5544,
   "lon": 145.2883
  },
  {
   "id": "ASN00036026",
   "name": "ISISFORD POST OFFICE",
   "lat": -24.2591,
   "lon": 144.4406
  },
  {
   "id": "ASN00036030",
   "name": "LONGREACH POST OFFICE",
   "lat": -23.45,
   "lon": 144.25
  },
  {
   "id": "ASN00036031",
   "name": "LONGREACH AERO",
   "lat": -23.4372,
   "lon": 144.2769
  },
  {
   "id": "ASN00036034",
   "name": "BLACKALL AIRPORT",
   "lat": -24.4303,
   "lon": 145.4306
  },
  {
   "id": "ASN00036047",
   "name": "TWIN HILLS POST OFFICE",
   "lat": -21.95,
   "lon": 146.9517
  },
  {
   "id": "ASN00036143",
   "name": "BLACKALL TOWNSHIP",
   "lat": -24.4214,
   "lon": 145.4672
  },
  {
   "id": "ASN00036167",
   "name": "LONGREACH COMPARISON",
   "lat": -23.4372,
   "lon": 144.2769
  },
  {
   "id": "ASN00037010",
   "name": "CAMOOWEAL TOWNSHIP",
   "lat": -19.9225,
   "lon": 138.1214
  },
  {
   "id": "ASN00037034",
   "name": "THE MONUMENT AIRPORT",
   "lat": -21.8125,
   "lon": 139.9267
  },
  {
   "id": "ASN00037036",
   "name": "TREPELL AIRPORT",
   "lat": -21.84,
   "lon": 140.8925
  },
  {
   "id": "ASN00037039",
   "name": "WINTON AIRPORT",
   "lat": -22.3617,
   "lon": 143.0836
  },
  {
   "id": "ASN00037043",
   "name": "URANDANGI",
   "lat": -21.6119,
   "lon": 138.3136
  },
  {
   "id": "ASN00037051",
   "name": "WINTON POST OFFICE",
   "lat": -22.3908,
   "lon": 143.0386
  },
  {
   "id": "ASN00038000",
   "name": "BEDOURIE POLICE STATION",
   "lat": -24.3597,
   "lon": 139.4714
  },
  {
   "id": "ASN00038002",
   "name": "BIRDSVILLE POLICE STATION",
   "lat": -25.9003,
   "lon": 139.3486
  },
  {
   "id": "ASN00038003",
   "name": "BOULIA AIRPORT",
   "lat": -22.9117,
   "lon": 139.9039
  },
  {
   "id": "ASN00038024",
   "name": "WINDORAH POST OFFICE",
   "lat": -25.4228,
   "lon": 142.6564
  },
  {
   "id": "ASN00038026",
   "name": "BIRDSVILLE AIRPORT",
   "lat": -25.8975,
   "lon": 139.3472
  },
  {
   "id": "ASN00039004",
   "name": "BARALABA POST OFFICE",
   "lat": -24.1819,
   "lon": 149.8117
  },
  {
   "id": "ASN00039006",
   "name": "BILOELA DPI",
   "lat": -24.3789,
   "lon": 150.5164
  },
  {
   "id": "ASN00039014",
   "name": "BULBURIN FORESTRY",
   "lat": -24.5333,
   "lon": 151.4667
  },
  {
   "id": "ASN00039015",
   "name": "BUNDABERG POST OFFICE",
   "lat": -24.8667,
   "lon": 152.3467
  },
  {
   "id": "ASN00039018",
   "name": "BUSTARD HEAD LIGHTHOUSE",
   "lat": -24.0222,
   "lon": 151.7642
  },
  {
   "id": "ASN00039023",
   "name": "CAPE CAPRICORN LIGHTHOUSE",
   "lat": -23.4833,
   "lon": 151.2333
  },
  {
   "id": "ASN00039025",
   "name": "CHILDERS POST OFFICE",
   "lat": -25.2361,
   "lon": 152.2781
  },
  {
   "id": "ASN00039039",
   "name": "GAYNDAH POST OFFICE",
   "lat": -25.6258,
   "lon": 151.6094
  },
  {
   "id": "ASN00039057",
   "name": "KALPOWAR FORESTRY",
   "lat": -24.6925,
   "lon": 151.3047
  },
  {
   "id": "ASN00039059",
   "name": "LADY ELLIOT ISLAND",
   "lat": -24.1116,
   "lon": 152.7161
  },
  {
   "id": "ASN00039066",
   "name": "GAYNDAH AIRPORT",
   "lat": -25.6167,
   "lon": 151.6156
  },
  {
   "id": "ASN00039069",
   "name": "WALTERHALL",
   "lat": -23.6286,
   "lon": 150.3867
  },
  {
   "id": "ASN00039083",
   "name": "ROCKHAMPTON AERO",
   "lat": -23.3753,
   "lon": 150.4775
  },
  {
   "id": "ASN00039085",
   "name": "SANDY CAPE LIGHTHOUSE",
   "lat": -24.7298,
   "lon": 153.2089
  },
  {
   "id": "ASN00039089",
   "name": "THANGOOL AIRPORT",
   "lat": -24.4935,
   "lon": 150.5709
  },
  {
   "id": "ASN00039104",
   "name": "MONTO TOWNSHIP",
   "lat": -24.8642,
   "lon": 151.1247
  },
  {
   "id": "ASN00039122",
   "name": "HERON ISLAND RES STN",
   "lat": -23.4422,
   "lon": 151.9131
  },
  {
   "id": "ASN00039123",
   "name": "GLADSTONE RADAR",
   "lat": -23.8553,
   "lon": 151.2628
  },
  {
   "id": "ASN00039128",
   "name": "BUNDABERG AERO",
   "lat": -24.8885,
   "lon": 152.3235
  },
  {
   "id": "ASN00039130",
   "name": "NORTH REEF LIGHTHOUSE",
   "lat": -23.1833,
   "lon": 151.9
  },
  {
   "id": "ASN00039171",
   "name": "NARAYEN RES STN",
   "lat": -25.6875,
   "lon": 150.8689
  },
  {
   "id": "ASN00039314",
   "name": "SEVENTEEN SEVENTY",
   "lat": -24.1542,
   "lon": 151.8875
  },
  {
   "id": "ASN00039322",
   "name": "RUNDLE ISLAND",
   "lat": -23.5293,
   "lon": 151.2763
  },
  {
   "id": "ASN00039326",
   "name": "GLADSTONE AIRPORT",
   "lat": -23.8697,
   "lon": 151.2214
  },
  {
   "id": "ASN00040004",
   "name": "AMBERLEY AMO",
   "lat": -27.6297,
   "lon": 152.7111
  },
  {
   "id": "ASN00040040",
   "name": "CALOUNDRA SIGNAL STATION",
   "lat": -26.8017,
   "lon": 153.15
  },
  {
   "id": "ASN00040043",
   "name": "CAPE MORETON LIGHTHOUSE",
   "lat": -27.0314,
   "lon": 153.4661
  },
  {
   "id": "ASN00040062",
   "name": "CROHAMHURST",
   "lat": -26.8094,
   "lon": 152.87
  },
  {
   "id": "ASN00040068",
   "name": "DOUBLE ISLAND POINT LIGHTHOUSE",
   "lat": -25.9319,
   "lon": 153.1906
  },
  {
   "id": "ASN00040082",
   "name": "UNIVERSITY OF QUEENSLAND GATTO",
   "lat": -27.5436,
   "lon": 152.3375
  },
  {
   "id": "ASN00040093",
   "name": "GYMPIE",
   "lat": -26.1831,
   "lon": 152.6414
  },
  {
   "id": "ASN00040101",
   "name": "IPSWICH",
   "lat": -27.6117,
   "lon": 152.7608
  },
  {
   "id": "ASN00040112",
   "name": "KINGAROY PRINCE STREET",
   "lat": -26.5544,
   "lon": 151.8456
  },
  {
   "id": "ASN00040121",
   "name": "MALENY TAMARIND ST",
   "lat": -26.7528,
   "lon": 152.8519
  },
  {
   "id": "ASN00040126",
   "name": "MARYBOROUGH",
   "lat": -25.5161,
   "lon": 152.7156
  },
  {
   "id": "ASN00040158",
   "name": "NANANGO WILLS ST",
   "lat": -26.6756,
   "lon": 151.9939
  },
  {
   "id": "ASN00040189",
   "name": "SOMERSET DAM",
   "lat": -27.1147,
   "lon": 152.555
  },
  {
   "id": "ASN00040190",
   "name": "SOUTHPORT RIDGEWAY AVE",
   "lat": -27.9832,
   "lon": 153.4054
  },
  {
   "id": "ASN00040197",
   "name": "MT TAMBORINE FERN ST",
   "lat": -27.9695,
   "lon": 153.1952
  },
  {
   "id": "ASN00040209",
   "name": "POINT LOOKOUT",
   "lat": -27.4361,
   "lon": 153.5456
  },
  {
   "id": "ASN00040211",
   "name": "ARCHERFIELD AIRPORT",
   "lat": -27.5717,
   "lon": 153.0078
  },
  {
   "id": "ASN00040214",
   "name": "BRISBANE REGIONAL OFFICE",
   "lat": -27.4778,
   "lon": 153.0306
  },
  {
   "id": "ASN00040223",
   "name": "BRISBANE AERO",
   "lat": -27.4178,
   "lon": 153.1142
  },
  {
   "id": "ASN00040241",
   "name": "SAMFORD CSIRO",
   "lat": -27.3617,
   "lon": 152.8861
  },
  {
   "id": "ASN00040242",
   "name": "SANDGATE POST OFFICE",
   "lat": -27.3233,
   "lon": 153.07
  },
  {
   "id": "ASN00040264",
   "name": "TEWANTIN POST OFFICE",
   "lat": -26.3919,
   "lon": 153.0408
  },
  {
   "id": "ASN00040282",
   "name": "NAMBOUR DPI",
   "lat": -26.6431,
   "lon": 152.9392
  },
  {
   "id": "ASN00040284",
   "name": "BEERBURRUM FOREST STATION",
   "lat": -26.9586,
   "lon": 152.9619
  },
  {
   "id": "ASN00040288",
   "name": "COOLANGATTA AERO",
   "lat": -28.1661,
   "lon": 153.5036
  },
  {
   "id": "ASN00040308",
   "name": "MT GLORIOUS FAHEY RD",
   "lat": -27.3342,
   "lon": 152.7717
  },
  {
   "id": "ASN00040405",
   "name": "HERVEY BAY AIRPORT",
   "lat": -25.322,
   "lon": 152.8817
  },
  {
   "id": "ASN00040428",
   "name": "BRIAN PASTURES",
   "lat": -25.655,
   "lon": 151.745
  },
  {
   "id": "ASN00040436",
   "name": "GATTON QDPI RESEARCH STN",
   "lat": -27.5456,
   "lon": 152.3289
  },
  {
   "id": "ASN00040454",
   "name": "GLENLOGAN FIELD STATION",
   "lat": -27.8333,
   "lon": 153.0
  },
  {
   "id": "ASN00040555",
   "name": "TOOLARA KELLY",
   "lat": -25.9714,
   "lon": 152.8608
  },
  {
   "id": "ASN00040651",
   "name": "JIMNA FORESTRY",
   "lat": -26.6644,
   "lon": 152.4606
  },
  {
   "id": "ASN00040697",
   "name": "REDCLIFFE COUNCIL",
   "lat": -27.245,
   "lon": 153.1006
  },
  {
   "id": "ASN00040717",
   "name": "COOLANGATTA",
   "lat": -28.1681,
   "lon": 153.5053
  },
  {
   "id": "ASN00040764",
   "name": "GOLD COAST SEAWAY",
   "lat": -27.939,
   "lon": 153.4283
  },
  {
   "id": "ASN00040842",
   "name": "BRISBANE AERO",
   "lat": -27.3917,
   "lon": 153.1292
  },
  {
   "id": "ASN00040854",
   "name": "LOGAN CITY WATER TREATMENT",
   "lat": -27.6839,
   "lon": 153.1947
  },
  {
   "id": "ASN00040856",
   "name": "RAINBOW BEACH",
   "lat": -25.9007,
   "lon": 153.0891
  },
  {
   "id": "ASN00040861",
   "name": "MAROOCHYDORE AERO",
   "lat": -26.6006,
   "lon": 153.0903
  },
  {
   "id": "ASN00040908",
   "name": "TEWANTIN RSL PARK",
   "lat": -26.3911,
   "lon": 153.0403
  },
  {
   "id": "ASN00040913",
   "name": "BRISBANE",
   "lat": -27.4808,
   "lon": 153.0389
  },
  {
   "id": "ASN00040922",
   "name": "KINGAROY AIRPORT",
   "lat": -26.5737,
   "lon": 151.8398
  },
  {
   "id": "ASN00040958",
   "name": "REDCLIFFE",
   "lat": -27.2169,
   "lon": 153.0922
  },
  {
   "id": "ASN00041011",
   "name": "CAMBOOYA POST OFFICE",
   "lat": -27.7072,
   "lon": 151.865
  },
  {
   "id": "ASN00041023",
   "name": "DALBY POST OFFICE",
   "lat": -27.1839,
   "lon": 151.2639
  },
  {
   "id": "ASN00041038",
   "name": "GOONDIWINDI POST OFFICE",
   "lat": -28.5481,
   "lon": 150.3075
  },
  {
   "id": "ASN00041044",
   "name": "HERMITAGE",
   "lat": -28.2061,
   "lon": 152.1003
  },
  {
   "id": "ASN00041056",
   "name": "KILLARNEY POST OFFICE",
   "lat": -28.3344,
   "lon": 152.2953
  },
  {
   "id": "ASN00041082",
   "name": "PITTSWORTH",
   "lat": -27.7156,
   "lon": 151.6333
  },
  {
   "id": "ASN00041095",
   "name": "STANTHORPE LESLIE PARADE",
   "lat": -28.6617,
   "lon": 151.9339
  },
  {
   "id": "ASN00041100",
   "name": "TEXAS POST OFFICE",
   "lat": -28.8544,
   "lon": 151.1681
  },
  {
   "id": "ASN00041103",
   "name": "TOOWOOMBA",
   "lat": -27.5836,
   "lon": 151.9317
  },
  {
   "id": "ASN00041116",
   "name": "WALLANGARRA POST OFFICE",
   "lat": -28.9231,
   "lon": 151.9306
  },
  {
   "id": "ASN00041175",
   "name": "APPLETHORPE",
   "lat": -28.6217,
   "lon": 151.9533
  },
  {
   "id": "ASN00041176",
   "name": "WARWICK DRAGON ST",
   "lat": -28.2247,
   "lon": 152.0258
  },
  {
   "id": "ASN00041341",
   "name": "INGLEWOOD TOBACCO RES",
   "lat": -28.5,
   "lon": 150.9333
  },
  {
   "id": "ASN00041359",
   "name": "OAKEY AERO",
   "lat": -27.4034,
   "lon": 151.7413
  },
  {
   "id": "ASN00041521",
   "name": "GOONDIWINDI AIRPORT",
   "lat": -28.5211,
   "lon": 150.3256
  },
  {
   "id": "ASN00041522",
   "name": "DALBY AIRPORT",
   "lat": -27.1605,
   "lon": 151.2634
  },
  {
   "id": "ASN00041525",
   "name": "WARWICK",
   "lat": -28.2061,
   "lon": 152.1003
  },
  {
   "id": "ASN00041529",
   "name": "TOOWOOMBA AIRPORT",
   "lat": -27.5425,
   "lon": 151.9134
  },
  {
   "id": "ASN00042023",
   "name": "MILES POST OFFICE",
   "lat": -26.6581,
   "lon": 150.1844
  },
  {
   "id": "ASN00042112",
   "name": "MILES CONSTANCE STREET",
   "lat": -26.6569,
   "lon": 150.1819
  },
  {
   "id": "ASN00043015",
   "name": "INJUNE POST OFFICE",
   "lat": -25.8428,
   "lon": 148.5669
  },
  {
   "id": "ASN00043020",
   "name": "MITCHELL POST OFFICE",
   "lat": -26.4888,
   "lon": 147.9777
  },
  {
   "id": "ASN00043030",
   "name": "ROMA POST OFFICE",
   "lat": -26.5719,
   "lon": 148.7897
  },
  {
   "id": "ASN00043034",
   "name": "ST GEORGE POST OFFICE",
   "lat": -28.0361,
   "lon": 148.5814
  },
  {
   "id": "ASN00043035",
   "name": "SURAT",
   "lat": -27.159,
   "lon": 149.0703
  },
  {
   "id": "ASN00043091",
   "name": "ROMA AIRPORT",
   "lat": -26.5442,
   "lon": 148.7778
  },
  {
   "id": "ASN00043109",
   "name": "ST GEORGE AIRPORT",
   "lat": -28.0489,
   "lon": 148.5942
  },
  {
   "id": "ASN00044010",
   "name": "BOLLON MARY ST",
   "lat": -28.0336,
   "lon": 147.4803
  },
  {
   "id": "ASN00044021",
   "name": "CHARLEVILLE AERO",
   "lat": -26.4139,
   "lon": 146.2558
  },
  {
   "id": "ASN00044022",
   "name": "CHARLEVILLE POST OFFICE",
   "lat": -26.4025,
   "lon": 146.2381
  },
  {
   "id": "ASN00044026",
   "name": "CUNNAMULLA POST OFFICE",
   "lat": -28.0706,
   "lon": 145.6808
  },
  {
   "id": "ASN00044036",
   "name": "GILRUTH PLAINS",
   "lat": -28.1,
   "lon": 145.9833
  },
  {
   "id": "ASN00045000",
   "name": "ADAVALE POST OFFICE",
   "lat": -25.9167,
   "lon": 144.6
  },
  {
   "id": "ASN00045009",
   "name": "BALLERA GAS FIELD",
   "lat": -27.4008,
   "lon": 141.8114
  },
  {
   "id": "ASN00045015",
   "name": "QUILPIE AIRPORT",
   "lat": -26.6125,
   "lon": 144.2578
  },
  {
   "id": "ASN00045017",
   "name": "THARGOMINDAH POST OFFICE",
   "lat": -27.9978,
   "lon": 143.8197
  },
  {
   "id": "ASN00045025",
   "name": "THARGOMINDAH AIRPORT",
   "lat": -27.9867,
   "lon": 143.815
  },
  {
   "id": "ASN00046012",
   "name": "WILCANNIA AERODROME AWS",
   "lat": -31.5194,
   "lon": 143.385
  },
  {
   "id": "ASN00046037",
   "name": "TIBOOBURRA POST OFFICE",
   "lat": -29.4345,
   "lon": 142.0098
  },
  {
   "id": "ASN00046042",
   "name": "WHITE CLIFFS POST OFFICE",
   "lat": -30.8506,
   "lon": 143.0893
  },
  {
   "id": "ASN00046043",
   "name": "WILCANNIAREID ST",
   "lat": -31.5631,
   "lon": 143.3747
  },
  {
   "id": "ASN00046126",
   "name": "TIBOOBURRA AIRPORT",
   "lat": -29.4448,
   "lon": 142.0567
  },
  {
   "id": "ASN00046128",
   "name": "FOWLERS GAP AWS",
   "lat": -31.0867,
   "lon": 141.7017
  },
  {
   "id": "ASN00046129",
   "name": "WHITE CLIFFS AWS",
   "lat": -30.8517,
   "lon": 143.0742
  },
  {
   "id": "ASN00047007",
   "name": "BROKEN HILL PATTON STREET",
   "lat": -31.9759,
   "lon": 141.4676
  },
  {
   "id": "ASN00047016",
   "name": "LAKE VICTORIA STORAGE",
   "lat": -34.0398,
   "lon": 141.2652
  },
  {
   "id": "ASN00047019",
   "name": "MENINDEE POST OFFICE",
   "lat": -32.3937,
   "lon": 142.4173
  },
  {
   "id": "ASN00047029",
   "name": "POONCARIE MAIL AGENCY",
   "lat": -33.3856,
   "lon": 142.5696
  },
  {
   "id": "ASN00047031",
   "name": "BROKEN HILL STEPHENS CREEK RE",
   "lat": -31.8803,
   "lon": 141.593
  },
  {
   "id": "ASN00047048",
   "name": "BROKEN HILL AIRPORT AWS",
   "lat": -32.0012,
   "lon": 141.4694
  },
  {
   "id": "ASN00047053",
   "name": "WENTWORTH POST OFFICE",
   "lat": -34.1065,
   "lon": 141.9189
  },
  {
   "id": "ASN00047102",
   "name": "BROKEN HILL RFDS",
   "lat": -31.9333,
   "lon": 141.5333
  },
  {
   "id": "ASN00048013",
   "name": "BOURKE POST OFFICE",
   "lat": -30.0917,
   "lon": 145.9358
  },
  {
   "id": "ASN00048015",
   "name": "BREWARRINA HOSPITAL",
   "lat": -29.9614,
   "lon": 146.8651
  },
  {
   "id": "ASN00048027",
   "name": "COBAR MO",
   "lat": -31.484,
   "lon": 145.8294
  },
  {
   "id": "ASN00048030",
   "name": "COBAR POST OFFICE",
   "lat": -31.5,
   "lon": 145.8
  },
  {
   "id": "ASN00048031",
   "name": "COLLARENEBRI ALBERT ST",
   "lat": -29.5407,
   "lon": 148.5818
  },
  {
   "id": "ASN00048079",
   "name": "WANAARING POST OFFICE",
   "lat": -29.7029,
   "lon": 144.1482
  },
  {
   "id": "ASN00048237",
   "name": "COBAR AIRPORT AWS",
   "lat": -31.5389,
   "lon": 145.7964
  },
  {
   "id": "ASN00048243",
   "name": "LIGHTNING RIDGE VISITORS INFOR",
   "lat": -29.431,
   "lon": 147.9722
  },
  {
   "id": "ASN00048245",
   "name": "BOURKE AIRPORT AWS",
   "lat": -30.0362,
   "lon": 145.9521
  },
  {
   "id": "ASN00049000",
   "name": "IVANHOE AERODROME AWS",
   "lat": -32.8831,
   "lon": 144.3088
  },
  {
   "id": "ASN00049002",
   "name": "BALRANALD RSL",
   "lat": -34.6398,
   "lon": 143.561
  },
  {
   "id": "ASN00049013",
   "name": "EUSTON POST OFFICE",
   "lat": -34.5833,
   "lon": 142.7333
  },
  {
   "id": "ASN00049019",
   "name": "IVANHOE POST OFFICE",
   "lat": -32.8999,
   "lon": 144.2995
  },
  {
   "id": "ASN00049032",
   "name": "MOUNT HOPE CYPRESS GROVE",
   "lat": -32.8345,
   "lon": 145.8772
  },
  {
   "id": "ASN00050014",
   "name": "CONDOBOLIN RETIREMENT VILLAGE",
   "lat": -33.0818,
   "lon": 147.1524
  },
  {
   "id": "ASN00050017",
   "name": "WEST WYALONG AIRPORT AWS",
   "lat": -33.9382,
   "lon": 147.1962
  },